     3.02           OBSERVATION DATA    M (MIXED)           RINEX VERSION / TYPE
ANDROID_RINEX       UNKN                2023-07-25 17:36:42 PGM / RUN BY / DATE
Generated by Rokubun's android_rinex program                COMMENT
Four doubts or inquiries, reach us at info@rokubun.cat      COMMENT
                                                            MARKER NAME
LU                  LSGI                                    OBSERVER / AGENCY
Samsung Note8       mobiles             Android7.0          REC # / TYPE / VERS
UNKN                UNKN                                    ANT # / TYPE
        0.0000        0.0000        0.0000                  APPROX POSITION XYZ
        0.0000        0.0000        0.0000                  ANTENNA: DELTA H/E/N
G    4 C1C S1C L1C D1C                                      SYS / # / OBS TYPES
R    4 C1C S1C L1C D1C                                      SYS / # / OBS TYPES
E    4 C1C S1C L1C D1C                                      SYS / # / OBS TYPES
C    4 C1I S1I L1I D1I                                      SYS / # / OBS TYPES
J    4 C1C S1C L1C D1C                                      SYS / # / OBS TYPES
  2023    07    24    08    49    09.154912                 TIME OF FIRST OBS
                                                            END OF HEADER
> 2023 07 24 08 49 09.154912   0  6
G15  21684607.858          32.000           0.000       -5800.731
G18  20838926.911          32.000           0.000       -2797.388
G23  22482913.503          28.000           0.000       -1822.330
G05  23578204.049          25.000           0.000       -5601.010
J03  36072176.152          25.000           0.000       -3919.117
R02  21390708.422          31.000           0.000       -4457.534
> 2023 07 24 08 49 10.154912   0 22
G15  21685698.803          26.000           0.000       -5804.019
G18  20839458.143          37.000           0.000       -2802.754
G23  22483258.864          28.000           0.000       -1820.133
G05  23579238.333          21.000           0.000       -5613.468
J03  36072942.721          25.000           0.000       -3930.804
R02  21391537.648          30.000           0.000       -4463.019
G24  20300650.752          27.000           0.000       -3474.809
R24  21409897.238          30.000           0.000       -7664.768
C30  26298564.882          27.000           0.000       -6796.339
R17  20202734.040          23.000           0.000       -4190.921
C06  36202322.654          41.000           0.000       -3569.573
C09  37149935.135          31.000           0.000       -3302.587
C13  36624415.445          26.000           0.000       -2985.278
C16  36381110.781          41.000           0.000       -3671.996
C35  24221126.663          27.000           0.000       -3376.254
C19  23668635.545          28.000           0.000       -3266.977
C20  23481538.669          31.000           0.000       -4573.981
C29  23503011.004          23.000           0.000       -5980.248
C38  36234954.163          28.000           0.000       -3355.949
C39  36124468.051          25.000           0.000       -3805.175
C46  23313926.205          32.000           0.000       -2147.956
R12  21595808.135          23.000           0.000       -2166.757
> 2023 07 24 08 49 10.554912   0 22
G15  21686137.100          25.000           0.000       -5809.742
G18  20839670.996          37.000           0.000       -2805.864
G23  22483396.768          27.000           0.000       -1822.324
G05  23579663.139          21.000           0.000       -5614.948
J03  36073242.514          25.000           0.000       -3931.047
R02  21391869.818          30.000           0.000       -4464.168
G24  20300911.272          27.000           0.000       -3477.859
R24  21410407.485          27.000           0.000       -7664.768
C30  26299053.844          27.000           0.000       -6798.506
R17  20203100.686          23.000           0.000       -4297.770
C06  36202591.268          41.000           0.000       -3564.326
C09  37150190.258          31.000           0.000       -3301.549
C13  36624658.576          26.000           0.000       -2992.763
C16  36381390.787          41.000           0.000       -3673.496
C35  24221363.799          27.000           0.000       -3386.894
C19  23668822.915          28.000           0.000       -3269.867
C20  23481898.420          31.000           0.000       -4574.442
C29  23503469.687          23.000           0.000       -5958.384
C38  36235192.498          28.000           0.000       -3355.905
C39  36124755.852          25.000           0.000       -3829.696
C46  23314087.793          32.000           0.000       -2150.134
R12  21595934.047          19.000           0.000       -2156.487
> 2023 07 24 08 49 11.554912   0 22
G15  21686863.497          22.000           0.000       -3809.037
G18  20839824.790          33.000           0.000        -803.313
G23  22483362.592          25.000           0.000         177.449
G05  23580351.163          16.000           0.000       -3608.300
J03  36073610.359          20.000           0.000       -1923.512
R02  21392320.706          27.000           0.000       -2431.223
G24  20301189.479          23.000           0.000       -1476.005
R24  21411484.939          24.000           0.000       -5628.062
C30  26300005.385          22.000           0.000       -4817.650
R17  20203526.091          23.000           0.000       -2205.154
C06  36202888.362          16.000           0.000       -1560.517
C09  37150442.384          28.000           0.000       -1313.733
C13  36624849.844          26.000           0.000       -1008.365
C16  36381706.469          20.000           0.000       -1690.835
C35  24221632.713          24.000           0.000       -1402.900
C19  23669085.233          21.000           0.000       -1288.720
C20  23482390.979          29.000           0.000       -2591.620
C38  36235507.580          20.000           0.000       -1368.644
C29  23504255.143          22.000           0.000       -3993.775
C39  36125112.605          22.000           0.000       -1849.656
C46  23314122.269          28.000           0.000        -166.231
R12  21595944.240          19.000           0.000        -110.626
> 2023 07 24 08 49 12.554912   0 24
G15  21687586.896          23.000           0.347       -3811.669
G18  20839982.480          28.000           0.225        -805.030
G23  22483327.516          26.000           0.620         173.707
G05  23581039.786          19.000           0.188       -3610.340
J03  36073980.303          19.000           0.317       -1925.152
R02  21392772.793          26.000           0.000       -2433.597
G24  20301468.886          19.000           0.487       -1481.061
R18  22682343.542          19.000           0.000        1048.871
R24  21412560.294          27.000           0.000       -5631.475
C30  26300945.234          23.000           0.000       -4822.987
R17  20203932.910          27.000           0.000       -2210.097
C06  36203184.557           9.000           0.341       -1564.170
C09  37150694.509          28.000           0.022       -1317.186
C13  36625042.011          26.000           0.065       -1011.901
C16  36382020.951           9.000          -0.140       -1691.091
C35  24221902.226          26.000           0.000       -1404.525
C19  23669347.552          21.000           0.524       -1293.914
C20  23482882.938          27.000           0.225       -2593.896
C38  36235742.917          20.000           0.000       -1379.500
C29  23505021.412          23.000           0.020       -3992.793
C36  25236066.235          20.000           0.000        1095.447
C39  36125466.360          15.000           0.178       -1843.850
C46  23314154.047          27.000          -0.178        -167.350
R12  21595957.131          18.000           0.000        -109.924
> 2023 07 24 08 49 14.000560   0 28
G15  21688623.279          18.000           0.254       -3811.549
G18  20840192.335          30.000           0.977        -806.247
G23  22483270.556          25.000           0.478         171.242
G05  23582039.594          23.000           0.403       -3614.679
J03  36074498.045          20.000           0.690       -1922.395
R02  21393416.148          22.000           0.000       -2434.574
G24  20301859.515          20.000           0.518       -1485.308
R18  22682046.148          21.000           0.000        1045.465
R24  21414115.917          21.000           0.000       -5635.588
C30  26302274.514          31.000           0.000       -4825.711
R17  20204516.905          25.000           0.000       -2215.892
C06  36203603.667           9.000           0.989       -1564.889
C09  37151050.663          27.000           0.682       -1320.295
C13  36625308.527          26.000           0.895       -1013.545
C16  36382469.740           9.000           0.992       -1687.564
C35  24222289.858          29.000           0.000       -1407.968
C19  23669718.095          20.000           0.989       -1304.034
C20  23483591.948          24.000           0.043       -2596.281
C38  36236124.853          21.000           0.000       -1376.506
C29  23506121.651          23.000           0.537       -3992.428
C36  25235795.522          10.000          -0.688        1087.408
C37  25138564.134          18.000           0.000       -2877.093
E36  23854536.248          25.000           0.000       -1293.511
C39  36125968.812          27.000           0.075       -1835.540
C46  23314193.620          25.000           0.748        -175.268
J02  37602697.894          18.000           0.000       -1773.891
R12  21595975.419          18.000           0.000        -111.931
C03  36206374.948          38.000           0.000       -1880.255
> 2023 07 24 08 49 15.000560   0 30
G15  21689338.583          17.000        3811.831       -3811.135
G18  20840345.529          30.000         807.880        -807.687
G23  22483236.080          26.000        -169.903         170.035
G05  23582733.313          21.000        3615.826       -3616.196
J03  36074860.494          26.000        1922.849       -1922.081
R02  21393872.732          18.000           0.000       -2434.811
G24  20302137.423          20.000        1485.943       -1485.127
R18  22681855.480          22.000           0.000        1041.206
R24  21415186.177          20.000           0.000       -5633.439
C30  26303199.374          30.000           0.000       -4823.722
R17  20204924.923          24.000           0.000       -2218.873
R03  22733455.458          17.000           0.000        -917.730
C39  36126340.555          25.000           0.000       -1843.664
C06  36203896.564           9.000        1566.364       -1564.005
C08  36296216.452          18.000           0.000       -1089.366
C09  37151303.088          28.000        1321.362       -1320.733
C13  36625502.492          25.000        1014.190       -1013.613
C16  36382783.923           9.000        1686.777       -1682.214
C35  24222561.170          28.000           0.000       -1409.302
C19  23669976.516          20.000        1305.389       -1305.138
C20  23484093.500          28.000        2596.014       -2595.781
C38  36236386.572          18.000           0.000       -1378.597
C29  23506888.820          21.000        3992.159       -3991.649
C36  25235589.565          13.000       -1085.779        1081.421
C37  25139152.927          19.000          -0.081       -2857.566
E36  23854779.680          25.000           0.176       -1277.169
C46  23314230.494          21.000         176.311        -176.423
J02  37602983.596           9.000          -0.082       -1776.613
R12  21596000.302          18.000           0.000        -122.926
C03  36206737.097          40.000           0.023       -1881.944
> 2023 07 24 08 49 16.000560   0 31
G15  21690046.393          16.000        7623.235       -3808.758
G18  20840498.723          33.000        1616.262        -809.051
G23  22483202.203          26.000        -340.284         170.521
G05  23583423.735          21.000        7232.605       -3617.335
J03  36075222.643          26.000        3845.803       -1924.234
R02  21394328.716          18.000           0.000       -2436.726
G24  20302414.131          20.000        2970.373       -1484.948
G29  24347564.732          17.000           0.000       -4470.454
R18  22681663.612          24.000           0.000        1035.911
R24  21416251.639          26.000           0.000       -5635.938
C30  26304122.435          27.000           0.000       -4822.228
R17  20205337.437          25.000           0.000       -2219.723
R03  22733541.198          17.000           0.000        -893.602
C39  36126676.622          28.000           0.000       -1838.521
C06  36204187.063           9.000        3129.596       -1562.393
C08  36296375.642          13.000           0.506       -1080.918
C46  23314267.369          23.000           0.000        -173.654
C09  37151555.513          27.000        2642.731       -1321.432
C13  36625695.559          26.000        2027.878       -1013.552
C16  36383097.806           9.000        3363.711       -1669.158
C35  24222831.882          26.000           0.000       -1410.080
C19  23670229.541          22.000        2610.928       -1304.611
C20  23484595.653          30.000        5192.044       -2595.950
C38  36236649.490          19.000           0.000       -1376.610
C29  23507654.190          23.000        7983.935       -3992.653
C36  25235379.710          14.000       -2165.438        1078.950
C37  25139703.945          21.000        2857.639       -2858.673
E36  23855046.195          34.000        1277.289       -1277.403
J02  37603313.967          13.000        1778.088       -1780.010
R12  21596019.788          18.000           0.000        -126.437
C03  36207097.748          40.000        1882.455       -1882.933
> 2023 07 24 08 49 17.000560   0 31
G15  21690769.493          16.000       11432.597       -3809.973
G18  20840651.917          34.000        2426.026        -810.756
G23  22483167.727          25.000        -511.225         170.969
G05  23584115.956          21.000       10850.528       -3618.356
J03  36075585.692          24.000        5771.074       -1925.569
R02  21394783.801          18.000           0.000       -2437.930
G24  20302686.343          20.000        4456.262       -1486.628
G29  24348295.026          15.000          -0.371       -4471.955
R18  22681473.844          25.000           0.000        1036.486
R24  21417320.099          24.000           0.000       -5637.174
C30  26305042.498          28.000           0.000       -4821.405
R17  20205756.247          26.000           0.000       -2219.332
R03  22733711.480          18.000           0.000        -918.586
C39  36127031.576          31.000           0.000       -1847.744
C06  36204477.262           9.000        4690.377       -1557.805
C08  36296598.388          11.000        1081.719       -1082.583
C46  23314237.689          23.000           0.000        -171.803
C09  37151809.737          28.000        3964.865       -1322.388
C13  36625888.625          28.000        3041.121       -1013.530
C16  36383408.390           9.000        5021.292       -1642.964
C35  24223101.096          27.000           0.000       -1411.863
C19  23670483.465          23.000        3913.492       -1301.761
C20  23485096.906          32.000        7787.998       -2595.501
C38  36236912.707          20.000           0.000       -1381.689
C29  23508420.459          24.000       11977.017       -3993.209
C36  25235169.556          15.000       -3244.351        1078.358
C37  25140249.268          22.000        5717.699       -2860.643
E36  23855281.832          34.000        2555.026       -1278.164
J02  37603652.733          12.000        3559.959       -1782.757
R12  21596041.073          16.000           0.000        -125.110
C03  36207459.597          41.000        3765.416       -1882.984
> 2023 07 24 08 49 18.000560   0 31
G15  21691503.984          17.000       15243.021       -3810.354
G18  20840806.310          31.000        3237.019        -811.225
G23  22483135.049          24.000        -682.643         171.325
G05  23584815.672          21.000       14469.280       -3619.785
J03  36075948.740          26.000        7696.305       -1925.375
R02  21395224.496          18.000           0.000       -2443.203
G24  20302960.653          20.000        5944.352       -1488.845
G29  24349164.424          15.000        4470.981       -4471.315
R18  22681284.075          26.000           0.000        1032.490
R24  21418388.859          22.000           0.000       -5637.924
C30  26305963.760          28.000           0.000       -4821.827
R17  20206172.359          24.000           0.000       -2219.772
R03  22733881.163          18.000           0.000        -929.177
C39  36127386.231          32.000           0.000       -1846.705
C06  36204766.861           9.000        6243.342       -1547.485
C08  36296820.834          12.000        2165.280       -1086.550
C46  23314281.459          22.000           0.000        -174.491
C09  37152063.362          27.000        5287.502       -1323.146
C13  36626083.190          27.000        4054.957       -1014.414
C16  36383707.883          31.000        6650.841       -1620.244
C35  24223372.108          25.000           0.000       -1412.539
C19  23670739.788          20.000        5212.413       -1296.997
C20  23485598.159          29.000       10384.206       -2597.344
C38  36237177.124          20.000           0.000       -1383.073
C29  23509187.628          27.000       15970.796       -3994.438
C36  25234960.301          15.000       -4323.915        1081.608
C37  25140797.888          20.000        8579.315       -2861.714
E36  23855512.073          35.000        3833.687       -1277.687
J02  37603990.299          13.000        5345.909       -1787.984
R12  21596066.855          16.000           0.000        -128.114
C03  36207820.547          41.000        5648.038       -1882.577
> 2023 07 24 08 49 19.000560   0 33
G15  21692239.075          17.000       19054.192       -3812.313
G18  20840964.001          29.000        4048.756        -812.199
G23  22483104.770          26.000        -854.149         172.083
G05  23585503.995          21.000       18088.846       -3619.361
J03  36076314.787          22.000        9622.414       -1926.167
R02  21395682.279          18.000           0.000       -2439.240
G24  20303236.162          20.000        7433.250       -1489.761
G29  24350026.927          15.000        8940.715       -4469.086
R18  22681097.304          24.000           0.000        1037.072
E09  24339535.990          22.000           0.000       -2877.499
R24  21419458.519          20.000           0.000       -5640.605
C30  26306888.020          28.000           0.000       -4822.471
R17  20206578.278          22.000           0.000       -2221.094
R03  22734054.443          17.000           0.000        -957.345
C39  36127742.085          30.000           0.000       -1847.322
C06  36205052.564           9.000        7778.914       -1525.243
C08  36297034.286          13.000        3253.127       -1089.895
C46  23314321.631          23.000           0.000        -166.742
C09  37152315.187          26.000        6610.694       -1323.076
C13  36626277.456          25.000        5068.690       -1012.615
C16  36384006.476          37.000        8265.360       -1611.618
C35  24223641.022          26.000           0.000       -1414.552
C19  23670994.611          23.000        6508.482       -1296.125
C20  23486099.112          29.000       12981.827       -2597.827
C38  36237440.042          20.000           0.000       -1376.862
C29  23509955.097          27.000       19965.790       -3995.604
C36  25234753.144          16.000       -5405.506        1081.167
C37  25141345.309          20.000       11443.578       -2865.654
E36  23855749.808          33.000          -0.094       -1282.609
E05  25381019.786          22.000           0.000       -1145.353
J02  37604324.568          13.000        7136.109       -1791.997
R12  21596089.640          14.000           0.000        -139.424
C03  36208180.898          40.000        7530.711       -1883.143
> 2023 07 24 08 49 20.000560   0 33
G15  21692970.569          19.000       22867.355       -3814.248
G18  20841110.300          24.000        4861.038        -812.206
G23  22483077.190          27.000       -1025.329         170.204
G05  23586188.122          17.000       21706.080       -3615.427
J03  36076683.532          21.000       11549.866       -1927.954
R02  21396146.358          18.000           0.000       -2435.152
G24  20303514.669          19.000        8922.758       -1489.955
G29  24350882.235          16.000       13411.090       -4471.812
R18  22680909.035          22.000           0.000        1036.789
E09  24340083.111          22.000          -0.273       -2878.597
R24  21420531.176          21.000           0.000       -5639.686
C30  26307813.480          28.000           0.000       -4822.439
R17  20206989.893          13.000           0.000       -2215.542
R03  22734230.121          17.000           0.000        -963.200
C39  36128098.238          32.000           0.000       -1847.871
C06  36205326.574          29.000        9287.155       -1499.926
C08  36297245.940          15.000        4344.307       -1089.174
C46  23314352.809          18.000           0.000        -164.019
C09  37152568.212          26.000        7933.244       -1323.107
C13  36626472.920          20.000        6082.512       -1014.707
C16  36384307.468          34.000        9876.398       -1611.343
C35  24223907.538          23.000           0.000       -1415.423
C19  23671249.135          23.000        7804.596       -1297.346
C20  23486599.765          27.000       15580.008       -2599.073
C38  36237703.560          21.000           0.000       -1378.372
C29  23510724.064          28.000       23962.085       -3997.286
C36  25234545.088          16.000       -6487.566        1084.249
C37  25141892.730          19.000       14308.801       -2865.241
E36  23855992.040          34.000        1281.198       -1283.003
E05  25381244.930          17.000          -0.575       -1156.533
J02  37604657.337          12.000        8932.690       -1797.955
R12  21596112.124          12.000           0.000        -141.685
C03  36208542.448          41.000        9414.288       -1884.245
> 2023 07 24 08 49 21.000560   0 33
G15  21693694.868          24.000       26682.384       -3816.041
G18  20841263.793          24.000        5673.794        -813.213
G23  22483047.810          27.000       -1195.497         169.980
G05  23586874.946          18.000       25321.649       -3615.621
J03  36077051.977          22.000       13476.952       -1926.954
R02  21396575.361          18.000           0.000       -2435.159
G24  20303797.374          24.000       10414.253       -1493.294
G29  24351733.346          16.000       17882.983       -4470.018
R18  22680720.465          20.000           0.000        1031.877
E09  24340629.933          21.000        2878.997       -2879.202
R24  21421588.844          24.000           0.000       -5639.383
C30  26308738.040          29.000           0.000       -4822.501
R17  20207423.693          15.000           0.000       -2214.473
R03  22734406.999          16.000           0.000        -954.109
C39  36128454.092          34.000           0.000       -1844.894
C06  36205597.287          34.000       10778.352       -1485.810
C08  36297458.792          15.000        5434.362       -1091.569
C46  23314386.686          17.000           0.000        -170.512
C09  37152821.237          25.000        9256.712       -1322.987
C13  36626668.385          23.000        7097.943       -1014.672
E05  25381444.891          19.000           0.000       -1142.216
C16  36384615.655          36.000       11499.816       -1625.240
C35  24224177.351          24.000           0.000       -1416.578
C19  23671499.462          24.000        9102.491       -1297.719
C20  23487103.117          24.000       18178.187       -2596.844
C38  36237969.476          24.000           0.000       -1376.967
C29  23511490.634          28.000       27959.243       -3996.870
C36  25234334.034          16.000       -7573.000        1086.445
C37  25142441.050          17.000       17176.305       -2870.198
E36  23856233.074          30.000        2561.991       -1279.546
J02  37604990.707          11.000       10729.338       -1796.227
R12  21596122.617          14.000           0.000        -138.101
C03  36208903.698          41.000       11298.507       -1883.525
> 2023 07 24 08 49 22.000560   0 33
G15  21694421.864          24.000       30499.167       -3816.791
G18  20841418.786          30.000        6486.358        -812.386
G23  22483013.933          24.000       -1365.617         171.177
G05  23587563.270          24.000       28937.552       -3616.038
J03  36077413.526          29.000       15402.626       -1925.121
R02  21397021.152          17.000           0.000       -2432.191
G24  20304080.677          22.000       11906.105       -1490.259
G29  24352588.654          16.000       22351.319       -4465.090
R18  22680529.198          18.000           0.000        1026.012
E09  24341178.553          17.000        5757.591       -2876.660
R24  21422644.113          25.000           0.000       -5637.489
C30  26309665.897          26.000           0.000       -4821.337
R17  20207834.709          18.000           0.000       -2220.387
R03  22734585.675          24.000           0.000        -945.426
C39  36128809.046          31.000           0.000       -1844.051
C06  36205871.597          30.000       12261.651       -1480.001
C08  36297669.546          16.000        6523.712       -1086.197
C46  23314422.361          17.000           0.000        -173.981
C09  37153076.360          30.000       10578.629       -1321.080
C13  36626866.548          24.000        8110.528       -1011.024
E05  25381665.838          22.000           0.610       -1138.967
C16  36384926.839          41.000           0.545       -1622.330
C35  24224456.458          25.000           0.000       -1413.121
C19  23671747.090          25.000       10400.200       -1297.992
C20  23487603.770          27.000       20774.983       -2596.055
C38  36238233.593          27.000           0.000       -1380.729
C29  23512256.603          25.000       31954.514       -3995.273
C36  25234124.179          18.000       -8660.675        1088.756
C37  25142995.367          16.000       20045.282       -2868.788
E36  23856475.006          38.000        3841.638       -1280.639
J02  37605331.271          12.000       12527.522       -1799.029
R12  21596145.401          17.000           0.000        -136.467
C03  36209265.547          37.000       13173.933       -1865.518
> 2023 07 24 08 49 23.000560   0 33
G15  21695152.458          18.000       34314.325       -3813.828
G18  20841571.680          38.000        7299.078        -813.134
G23  22482985.453          19.000       -1537.004         172.031
G05  23588251.293          26.000       32553.066       -3615.800
J03  36077772.977          30.000       17327.897       -1925.636
R02  21397478.036          25.000           0.000       -2434.590
G24  20304364.281          26.000       13396.291       -1489.898
G29  24353442.762          16.000       26816.360       -4465.124
R18  22680347.524          16.000           0.000        1016.957
E09  24341727.773          17.000        8633.776       -2875.585
R24  21423697.284          22.000           0.000       -5637.308
C30  26310594.355          25.000           0.000       -4822.190
R17  20208249.621          26.000           0.000       -2223.788
R03  22734760.754          22.000           0.000        -939.124
C39  36129166.698          36.000           0.000       -1844.894
C06  36206151.903          26.000       13743.333       -1484.544
C08  36297880.001          15.000        7606.578       -1079.005
C46  23314460.735          24.000           0.000        -175.397
C09  37153329.985          29.000       11899.573       -1320.651
C13  36627064.111          15.000        9122.472       -1012.107
E05  25381878.691          20.000        1139.618       -1139.204
C16  36385238.623          37.000        1624.099       -1627.061
C35  24224732.267          23.000           0.000       -1412.525
C19  23671990.522          29.000       11697.603       -1297.924
C20  23488104.124          31.000       23370.724       -2594.692
C38  36238500.108          26.000           0.000       -1378.964
C29  23513023.772          24.000       35949.952       -3993.647
C36  25233913.725          19.000       -9750.379        1090.044
C37  25143551.182          16.000       22912.351       -2865.521
E36  23856722.035          40.000        5122.230       -1287.213
J02  37605677.231          14.000       14326.595       -1800.019
R12  21596170.284          18.000           0.000        -134.653
C03  36209624.399          26.000       15048.847       -1881.180
> 2023 07 24 08 49 24.000560   0 33
G15  21695873.759          21.000       38128.497       -3815.154
G18  20841725.773          32.000        8113.561        -817.049
G23  22482952.776          20.000       -1707.634         169.977
G05  23588938.118          22.000       36172.136       -3620.699
J03  36078137.225          27.000       19254.232       -1928.067
R02  21397943.314          31.000           0.000       -2438.214
G24  20304644.887          23.000       14888.317       -1492.556
G29  24354296.571          16.000       31280.703       -4460.364
R18  22680153.258          16.000           0.000        1008.104
E09  24342276.093          17.000       11512.541       -2881.921
R24  21424743.560          28.000           0.000       -5639.935
C30  26311522.212          27.000           0.000       -4823.394
R17  20208667.832          25.000           0.000       -2228.219
R03  22734934.034          24.000           0.000        -936.039
C39  36129528.248          28.000           0.000       -1847.516
C06  36206434.007          25.000       15230.738       -1491.332
C08  36298087.457          15.000        8686.220       -1080.823
C46  23314500.607          22.000           0.000        -178.241
C09  37153584.509          31.000       13221.758       -1323.780
C13  36627253.580          24.000       10135.439       -1013.541
E05  25382104.135          23.000        2280.229       -1142.069
C16  36385548.309          36.000        3251.089       -1627.428
C35  24225009.575          27.000           0.000       -1415.821
C19  23672238.151          20.000       12995.559       -1299.230
C20  23488602.979          29.000       25967.037       -2597.800
C38  36238772.920          26.000           0.000       -1380.907
C29  23513788.843          19.000       39944.340       -3995.528
C36  25233704.770          20.000      -10839.626        1087.707
C37  25144101.601          16.000       25777.956       -2865.648
E36  23856971.163          33.000        6407.523       -1285.025
J02  37606017.496          15.000       16128.131       -1802.069
R12  21596196.066          20.000           0.000        -132.659
C03  36209982.950          24.000       16916.036       -1863.055
> 2023 07 24 08 49 25.000560   0 33
G15  21696604.953          21.000       41943.675       -3815.798
G18  20841887.362          36.000        8932.382        -820.424
G23  22482923.696          20.000       -1877.123         168.197
G05  23589622.544          19.000       39792.845       -3621.786
J03  36078501.773          20.000       21183.290       -1930.566
R02  21398401.396          31.000           0.000       -2439.187
G24  20304927.291          18.000       16380.989       -1494.695
G29  24355147.382          16.000       35741.074       -4461.217
R18  22679961.691          16.000           0.000        1006.902
E09  24342823.514          17.000       14393.801       -2881.914
R24  21425794.632          29.000           0.000       -5642.897
C30  26312447.971          27.000           0.000       -4825.015
R17  20209082.445          25.000           0.000       -2233.264
R03  22735109.712          16.000           0.000        -938.042
C39  36129887.399          22.000           0.000       -1850.521
C06  36206717.011          25.000       16723.621       -1494.764
C08  36298295.213          14.000        9767.970       -1083.867
C46  23314544.377          17.000           0.000        -181.490
C09  37153839.932          33.000       14546.690       -1325.739
C13  36627447.546          27.000       11149.599       -1015.236
E05  25382318.487          19.000        3424.084       -1145.510
C16  36385864.590          37.000        4879.272       -1628.814
C35  24225291.080          25.000           0.000       -1418.406
C19  23672480.383          20.000       14297.038       -1302.934
C20  23489103.632          33.000       28566.221       -2600.446
C38  36239037.336          25.000           0.000       -1383.161
C29  23514558.110          25.000       43941.776       -3999.951
C36  25233496.114          20.000      -11928.103        1088.203
C37  25144651.720          17.000       28644.785       -2867.858
E36  23857216.693          36.000        7693.799       -1285.982
J02  37606356.561          16.000       17932.734       -1807.509
R12  21596226.645          20.000           0.000        -137.684
C03  36210341.202          24.000       18783.607       -1866.601
> 2023 07 24 08 49 26.000560   0 33
G15  21697332.249          21.000       45760.243       -3816.402
G18  20842042.354          36.000          -0.208        -819.787
G23  22482891.018          21.000       -2043.822         166.125
G05  23590310.868          26.000       43415.277       -3623.962
J03  36078864.222          29.000       23114.814       -1932.392
R02  21398863.077          31.000           0.000       -2438.140
G24  20305209.696          19.000       17877.085       -1498.146
G29  24356001.791          15.000       40203.544       -4465.970
R18  22679770.423          16.000           0.000        1004.001
E09  24343371.535          17.000       17276.659       -2883.376
R24  21426849.003          29.000           0.000       -5644.861
C30  26313374.030          23.000           0.000       -4827.230
R17  20209503.653          24.000           0.000       -2236.304
R03  22735288.389          15.000           0.000        -936.852
C39  36130242.653          28.000           0.000       -1852.668
C06  36207006.011          27.000       18221.632       -1500.653
C08  36298506.867          14.000       10852.466       -1085.128
C46  23314584.549          20.000           0.000        -183.338
C09  37154095.055          32.000       15873.747       -1327.973
C13  36627641.811          28.000       12165.912       -1017.646
E05  25382533.738          14.000        4568.414       -1145.006
C16  36386177.573          39.000        6508.451       -1628.420
C35  24225570.187          25.000           0.000       -1419.930
C19  23672727.112          24.000       15602.205       -1306.144
C20  23489603.986          32.000       31167.662       -2601.727
C38  36239305.651          23.000           0.000       -1384.282
C29  23515328.277          25.000       47942.567       -4002.506
C36  25233285.960          21.000      -13015.047        1085.969
C37  25145200.340          18.000       31513.898       -2870.605
E36  23857452.929          38.000        8981.200       -1286.748
J02  37606697.125          16.000       19741.064       -1809.778
R12  21596254.226          19.000           0.000        -139.690
C03  36210701.553          25.000       20657.995       -1882.144
> 2023 07 24 08 49 27.000560   0 34
G15  21698056.848          21.000       49577.235       -3818.926
G18  20842201.244          38.000         821.154        -821.944
G23  22482861.339          15.000       -2210.173         166.098
G05  23590999.191          22.000       47038.950       -3624.241
J03  36079232.067          28.000       25047.528       -1933.046
R02  21399332.552          27.000           0.000       -2440.862
G24  20305497.497          19.000       19376.316       -1500.414
G29  24356856.499          16.000       44669.442       -4464.641
R18  22679582.453          16.000           0.000        1010.551
E09  24343919.555          16.000       20160.334       -2883.316
R01  23140196.777          17.000           0.000       -3520.510
R24  21427901.574          27.000           0.000       -5646.715
C30  26314301.588          25.000           0.000       -4827.961
R17  20209926.361          24.000           0.000       -2236.383
R03  22735459.570          17.000           0.000        -942.014
C39  36130597.308          31.000           0.000       -1852.216
C06  36207301.607          32.000       19724.133       -1504.137
C08  36298718.520          14.000       11940.317       -1091.507
C46  23314625.621          27.000           0.000        -184.263
C09  37154349.579          30.000       17201.441       -1328.346
C13  36627837.875          27.000       13183.916       -1018.934
E05  25382747.490          15.000        5712.391       -1143.653
C16  36386486.659          37.000        8137.991       -1630.258
C35  24225842.099          25.000           0.000       -1421.029
C19  23672978.638          26.000       16909.015       -1307.014
C20  23490099.842          32.000       33768.346       -2600.685
C38  36239579.961          22.000           0.000       -1386.079
C29  23516098.444          26.000       51946.212       -4004.086
C36  25233075.805          24.000      -14100.489        1085.235
C37  25145751.658          17.000       34385.952       -2872.696
E36  23857694.262          38.000       10269.387       -1289.411
J02  37607043.985          17.000       21552.147       -1812.004
R12  21596288.702          20.000           0.000        -136.442
C03  36211063.402          26.000       22542.429       -1887.563
> 2023 07 24 08 49 28.000560   0 34
G15  21698779.947          21.000       53397.211       -3820.908
G18  20842353.239          35.000        1643.632        -822.506
G23  22482830.760          27.000       -2376.592         165.465
G05  23591688.414          26.000       50663.786       -3625.955
J03  36079599.313          33.000       26981.099       -1933.733
R02  21399799.928          36.000           0.000       -2442.247
G24  20305786.197          24.000       20876.911       -1499.796
G29  24357708.809          15.000       49136.082       -4467.226
R18  22679394.184          24.000           0.000        1021.016
E09  24344467.576          16.000       23044.874       -2884.985
R01  23140948.656           9.000           0.000       -3468.602
R24  21428955.344          27.000           0.000       -5647.201
C30  26315225.848          32.000           0.000       -4827.317
R17  20210337.976          22.000           0.000       -2237.280
R03  22735630.752          19.000           0.000        -965.822
C39  36130951.962          26.000           0.000       -1852.875
C06  36207595.703          31.000       21228.936       -1505.685
C08  36298926.276          16.000       13034.054       -1096.485
C46  23314663.095          20.000           0.000        -184.964
C09  37154606.501          32.000       18529.858       -1328.441
C13  36628035.439          24.000       14202.684       -1018.772
E05  25382964.839          16.000        6857.870       -1146.625
C16  36386797.544          33.000        9768.110       -1629.815
C35  24226115.809          25.000           0.000       -1421.403
C19  23673227.166          28.000       18215.916       -1305.692
C20  23490599.297          32.000       36369.678       -2602.001
C38  36239853.971          22.000           0.000       -1387.919
C29  23516872.808          23.000       55951.647       -4005.967
C36  25232865.651          20.000      -15185.556        1084.296
C37  25146302.077          18.000       37258.537       -2871.928
E36  23857942.490          39.000       11558.470       -1288.396
J02  37607388.147          18.000       23362.678       -1809.125
R12  21596319.281          20.000           0.000        -136.055
C03  36211429.149          30.000       24432.283       -1891.975
> 2023 07 24 08 49 29.000560   0 34
G15  21699497.351          23.000       57216.874       -3819.412
G18  20842509.431          37.000        2466.234        -822.429
G23  22482796.284          28.000       -2541.987         165.975
G05  23592377.037          27.000       54288.800       -3624.865
J03  36079968.058          33.000       28914.250       -1932.939
R02  21400258.910          38.000           0.000       -2441.299
G24  20306076.995          25.000       22376.943       -1500.368
G29  24358560.220          15.000       53605.281       -4473.549
R18  22679203.516          21.000           0.000        1026.873
E09  24345017.095          15.000       25929.937       -2884.520
R01  23141548.541           9.000           0.000       -3467.859
R24  21430003.719          29.000           0.000       -5647.051
C30  26316148.310          30.000           0.000       -4827.554
R17  20210763.081          19.000           0.000       -2236.641
R03  22735807.030          19.000           0.000        -955.718
C39  36131309.015          23.000           0.000       -1853.010
C06  36207888.301          28.000       22734.676       -1506.164
C08  36299134.332          17.000       14131.505       -1097.966
C46  23314701.168          26.000           0.000        -184.683
C09  37154862.524          34.000       19858.334       -1328.437
C13  36628231.203          22.000       15223.589       -1021.982
E05  25383181.289          25.000        8004.858       -1147.631
C16  36387112.926          36.000       11397.960       -1628.727
C35  24226388.920          26.000           0.000       -1422.018
C19  23673476.293          30.000       19520.785       -1303.695
C20  23491098.451          30.000       38970.588       -2600.456
C38  36240124.084          22.000           0.000       -1390.008
C29  23517647.771          21.000       59957.596       -4006.533
C36  25232657.295          21.000      -16270.384        1084.966
C37  25146854.295          18.000       40129.072       -2871.262
E36  23858190.718          38.000       12847.546       -1288.694
J02  37607732.009          24.000       25169.597       -1805.477
R12  21596346.562          26.000           0.000        -135.139
C03  36211794.596          36.000       26325.644       -1893.844
> 2023 07 24 08 49 30.000560   0 34
G15  21700213.255          23.000       61036.441       -3820.713
G18  20842669.520          37.000        3289.243        -824.457
G23  22482763.307          27.000       -2708.163         166.474
G05  23593064.761          26.000       57914.426       -3625.432
J03  36080346.396          32.000       30846.562       -1932.076
R02  21400728.086          37.000           0.000       -2441.331
G24  20306368.693          25.000       23877.064       -1499.849
C37  25147554.610          20.000           0.000       -2868.199
G29  24359414.928          13.000       58078.401       -4472.374
R18  22679006.852          20.000           0.000        1029.389
E09  24345566.315          15.000       28814.279       -2886.300
R01  23142188.298           9.000           0.000       -3477.238
R24  21431050.894          28.000           0.000       -5646.686
C30  26317072.870          31.000           0.000       -4826.054
R17  20211180.392          17.000           0.000       -2239.863
R03  22735981.509          19.000           0.000        -946.893
C39  36131665.468          29.000           0.000       -1850.627
C06  36208180.898          24.000       24240.037       -1505.685
C08  36299342.388          18.000       15229.035       -1097.557
C46  23314739.242          23.000           0.000        -184.725
C09  37155123.643          34.000       21185.718       -1327.329
C13  36628427.867          19.000       16245.977       -1021.989
E05  25383398.039          23.000        9152.470       -1147.513
C16  36387426.209          35.000       13027.722       -1630.389
C35  24226660.232          26.000           0.000       -1423.758
C19  23673725.121          31.000       20824.016       -1302.577
C20  23491597.006          30.000       41570.801       -2599.982
C38  36240393.298          22.000           0.000       -1384.993
C29  23518422.435          20.000       63964.242       -4005.500
C36  25232450.738          23.000      -17355.177        1084.020
E36  23858437.447          38.000       14136.884       -1289.894
J02  37608073.772          26.000       26974.830       -1804.830
R12  21596375.342          24.000           0.000        -137.380
C03  36212160.643          34.000       28219.956       -1894.339
> 2023 07 24 08 49 31.000560   0 34
G15  21700930.658          12.000       64855.213       -3818.547
G18  20842827.811          36.000        4112.818        -821.272
G23  22482730.929          25.000       -2875.796         169.228
G05  23593752.485          25.000       61539.168       -3625.550
J03  36080715.141          30.000       32777.928       -1928.020
R02  21401190.066          37.000           0.000       -2445.340
G24  20306656.194          24.000       25377.037       -1499.374
C37  25148065.157          22.000           0.000       -2869.699
G29  24360268.137          12.000       62553.660       -4479.075
R18  22678815.584          17.000           0.000        1027.348
E09  24346114.935          14.000       31699.420       -2884.761
R01  23142837.948           9.000           0.000       -3484.607
R24  21432094.771          27.000           0.000       -5646.858
C30  26317998.928          30.000           0.000       -4824.955
R17  20211589.309          17.000           0.000       -2238.517
R03  22736158.386          19.000           0.000        -955.775
C39  36132020.723          29.000           0.000       -1851.536
C06  36208471.397          27.000       25744.710       -1503.745
C08  36299552.243          18.000       16328.169       -1099.628
C46  23314776.116          19.000           0.000        -183.161
C09  37155378.767          33.000          -0.316       -1329.394
C13  36628623.632          19.000       17268.466       -1021.951
E05  25383614.789          22.000       10299.847       -1147.277
C16  36387738.293          31.000       14657.412       -1630.071
C35  24226931.844          23.000           0.000       -1423.909
C19  23673974.548          30.000       22126.559       -1302.253
C20  23492096.160          30.000       44171.195       -2600.876
C38  36240665.509          21.000           0.000       -1386.596
C29  23519198.598          22.000       67968.473       -4001.975
C36  25232244.780          23.000      -18437.922        1081.919
E36  23858685.975          37.000       15426.373       -1287.271
J02  37608414.936          25.000       28779.279       -1804.983
R12  21596401.124          20.000           0.000        -127.922
C03  36212525.490          33.000       30114.136       -1893.979
> 2023 07 24 08 49 32.000560   0 34
G15  21701655.257          20.000       68673.357       -3817.708
G18  20842984.602          31.000        4935.192        -821.984
G23  22482698.252          27.000       -3045.572         169.747
G05  23594440.509          24.000       65164.632       -3625.671
J03  36081082.386          25.000       34706.784       -1929.085
R02  21401644.551          35.000           0.000       -2440.828
G24  20306946.993          24.000       26877.709       -1499.329
C37  25148611.379          23.000           0.000       -2880.605
G29  24361124.345          12.000       67033.415       -4479.038
R18  22678623.417          17.000           0.000        1022.499
E09  24346663.556          13.000       34582.295       -2879.875
R01  23143491.795           9.000           0.000       -3513.804
R24  21433142.246          27.000           0.000       -5646.256
C30  26318924.388          29.000           0.000       -4822.386
R17  20212014.715          25.000           0.000       -2236.712
R03  22736337.962          20.000           0.000        -947.129
C39  36132375.677          27.000           0.000       -1851.227
C06  36208760.397          29.000       27247.839       -1502.832
C08  36299762.397          18.000       17426.114       -1096.142
C46  23314803.697          20.000           0.000        -182.265
C09  37155629.393          28.000        1327.582       -1328.581
C13  36628818.497          21.000       18289.160       -1018.314
E05  25383832.438          15.000       11447.707       -1147.894
C16  36388050.976          26.000       16286.914       -1629.431
C35  24227206.154          23.000           0.000       -1423.689
C19  23674223.076          30.000       23428.400       -1301.721
C20  23492594.715          29.000       46772.436       -2601.350
C38  36240933.524          19.000           0.000       -1385.656
C29  23519969.964          18.000       71971.645       -4004.226
C36  25232040.022          20.000      -19521.750        1084.545
E36  23858930.306          32.000       16716.134       -1290.642
J02  37608754.001          21.000       30584.022       -1804.132
R12  21596429.604          15.000           0.000        -133.702
C03  36212889.738          32.000       32007.193       -1892.462
> 2023 07 24 08 49 33.000560   0 35
G15  21702381.354          23.000       72490.682       -3817.210
G18  20843139.895          35.000        5757.995        -823.665
G23  22482664.975          29.000       -3215.000         168.803
G05  23595124.036          20.000       68789.474       -3624.637
J03  36081447.534          29.000       36637.053       -1931.499
R02  21402100.835          33.000           0.000       -2439.358
G24  20307238.991          18.000       28377.765       -1499.753
C37  25149162.997          24.000           0.000       -2883.890
G29  24361980.552          14.000       71510.569       -4475.519
R18  22678424.655          18.000           0.000        1022.038
E09  24347211.576          13.000       37462.559       -2877.817
R01  23144150.140          10.000           0.000       -3545.816
R24  21434188.821          24.000           0.000       -5646.432
C30  26319852.845          35.000           0.000       -4823.361
R17  20212433.825          25.000           0.000       -2237.147
R03  22736507.944          19.000           0.000        -942.985
C39  36132731.530          32.000           0.000       -1851.544
C06  36209049.097          30.000       28750.387       -1501.912
C08  36299973.152          17.000       18522.316       -1095.469
C46  23314835.475          24.000           0.000        -181.578
C09  37155883.017          26.000        2656.057       -1328.687
C13  36629010.364          22.000       19307.130       -1017.479
E05  25384049.788          24.000       12595.005       -1146.922
C16  36388365.759          33.000       17915.907       -1628.795
C35  24227483.762          25.000           0.000       -1422.886
C19  23674471.005          34.000       24730.046       -1301.937
C20  23493093.270          31.000       49372.427       -2599.092
C38  36241201.238          21.000           0.000       -1383.704
C29  23520739.831          17.000       75977.188       -4006.744
C36  25231837.063          19.000      -20606.838        1085.691
E36  23859174.038          37.000       18006.294       -1290.943
J02  37609093.366          18.000       32387.427       -1801.580
C02  37402889.219          37.000           0.000       -1867.733
R12  21596451.189          13.000           0.000        -147.316
C03  36213253.986          35.000       33899.227       -1891.159
> 2023 07 24 08 49 34.000560   0 35
G15  21703106.552          26.000       76308.502       -3819.235
G18  20843293.688          31.000        6582.109        -825.187
G23  22482631.098          29.000       -3383.516         168.374
G05  23595813.258          23.000       72414.294       -3625.084
J03  36081815.079          29.000       38567.851       -1931.040
R02  21402554.421          31.000           0.000       -2438.165
G24  20307528.291          20.000       29878.829       -1503.376
C37  25149713.116          21.000           0.000       -2873.972
G29  24362837.059          15.000       75984.570       -4473.662
R18  22678228.590          19.000           0.000        1019.222
E09  24347758.997          13.000       40341.061       -2879.296
R01  23144816.578          10.000           0.000       -3564.311
R24  21435244.690          25.000           0.000       -5646.356
C30  26320778.604          32.000           0.000       -4822.445
R17  20212859.230          24.000           0.000       -2238.432
R03  22736681.824          20.000           0.000        -943.855
C39  36133086.185          31.000           0.000       -1852.369
C06  36209338.097          26.000       30251.983       -1502.127
C08  36300182.706          17.000       19618.269       -1094.488
C46  23314864.255          19.000           0.000        -182.858
C09  37156136.942          25.000        3984.624       -1327.969
C13  36629203.430          24.000       20325.116       -1017.853
E05  25384267.138          22.000       13741.704       -1146.470
C16  36388679.341          34.000       19544.608       -1625.270
C35  24227760.770          24.000           0.000       -1422.869
C19  23674719.233          32.000       26031.632       -1301.384
C20  23493592.724          29.000       51971.560       -2599.568
C38  36241469.253          18.000           0.000       -1380.977
C29  23521507.299          17.000       79983.388       -4005.478
C36  25231628.407          19.000      -21692.655        1086.789
E36  23859416.570          37.000          -0.015       -1290.526
J02  37609431.532          17.000       34188.205       -1798.890
C02  37403244.473          34.000          -0.153       -1867.406
R12  21596482.967          16.000           0.000        -151.899
C03  36213616.135          34.000       35789.736       -1889.490
> 2023 07 24 08 49 35.000560   0 36
G15  21703830.551          22.000       80127.130       -3817.847
G18  20843452.878          39.000        7407.104        -825.028
G23  22482598.121          27.000       -3551.883         168.278
G05  23596505.179          22.000       76038.974       -3623.973
J03  36082183.524          29.000       40499.113       -1931.243
R02  21403009.206          33.000           0.000       -2438.240
G13  24270708.738          15.000           0.000       -4894.528
G24  20307811.595          19.000       31382.676       -1503.942
C37  25150263.835          23.000           0.000       -2876.543
G29  24363694.765          16.000       80457.530       -4470.375
R18  22678033.126          19.000           0.000        1021.289
E09  24348307.617          13.000       43220.538       -2880.319
R01  23145487.814          12.000           0.000       -3577.339
R24  21436293.964          22.000           0.000       -5646.936
C30  26321710.659          29.000           0.000       -4823.069
R17  20213296.927          18.000           0.000       -2245.489
R03  22736860.201          20.000           0.000        -948.277
C39  36133441.139          32.000           0.000       -1850.545
C06  36209626.797          35.000       31754.512       -1503.176
C08  36300391.962          18.000       20712.134       -1093.933
C46  23314899.931          20.000           0.000        -184.011
C09  37156392.665          30.000        5312.207       -1326.909
C13  36629402.792          22.000       21342.460       -1017.161
E05  25384485.686          24.000       14888.019       -1146.380
C16  36388989.926          28.000       21171.394       -1628.931
C35  24228034.481          29.000           0.000       -1423.974
C19  23674968.960          32.000       27334.231       -1303.374
C20  23494089.780          25.000       54571.090       -2599.612
C38  36241733.970          19.000           0.000       -1379.985
C29  23522270.871          18.000       83988.682       -4005.360
C36  25231424.248          25.000      -22779.369        1084.857
E36  23859659.701          36.000        1289.662       -1289.258
J02  37609770.897          19.000       35987.343       -1800.034
C02  37403603.624          31.000        1867.581       -1866.977
R12  21596510.848          24.000           0.000        -146.898
C03  36213976.786          31.000       37678.621       -1888.084
> 2023 07 24 08 49 36.000560   0 35
G15  21704553.051          25.000       83943.953       -3816.847
G18  20843609.070          32.000        8232.480        -825.494
G23  22482562.146          25.000       -3721.380         169.188
G05  23597197.400          22.000       79663.386       -3625.083
J03  36082549.571          27.000       42430.121       -1930.934
R02  21403457.996          30.000           0.000       -2438.961
G13  24271644.990          13.000          -0.734       -4893.101
G24  20308100.295          23.000       32886.944       -1504.133
C37  25150816.952          20.000           0.000       -2874.507
G29  24364554.870          16.000       84932.238       -4474.060
R18  22677839.460          20.000           0.000        1020.517
E09  24348855.638          14.000       46098.090       -2876.943
R01  23146156.950          12.000           0.000       -3572.133
R24  21437349.533          32.000           0.000       -5647.177
C30  26322637.617          26.000           0.000       -4825.531
R17  20213714.838          23.000           0.000       -2242.621
R03  22737028.384          23.000           0.000        -951.732
C39  36133795.194          30.000           0.000       -1852.502
C06  36209916.097          32.000       33258.430       -1504.808
C08  36300603.315          19.000       21809.313       -1096.958
C46  23314935.006          20.000           0.000        -185.065
C09  37156650.186          24.000        6640.270       -1328.868
C13  36629595.559          19.000       22358.993       -1016.337
E05  25384703.036          17.000       16034.106       -1146.226
C16  36389304.409          29.000       22800.849       -1630.556
C35  24228307.292          28.000           0.000       -1425.049
C19  23675215.090          21.000       28637.227       -1303.323
C20  23494588.035          34.000       57170.668       -2599.741
C38  36241995.389          20.000           0.000       -1382.155
C29  23523038.040          18.000       87992.553       -4002.728
C36  25231215.893          20.000      -23864.992        1086.016
E36  23859906.430          30.000        2580.113       -1291.230
J02  37610112.661          19.000       37787.200       -1799.616
C02  37403962.176          23.000        3739.318       -1877.116
R12  21596544.425          22.000           0.000        -140.724
> 2023 07 24 08 49 37.000560   0 35
G15  21705276.450          30.000       87760.888       -3817.049
G18  20843764.362          32.000        9059.060        -827.213
G23  22482528.869          23.000       -3889.874         170.026
G05  23597883.625          22.000       83288.280       -3624.985
J03  36082916.517          26.000       44360.952       -1930.075
R02  21403910.682          27.000           0.000       -2439.042
G13  24272578.244          18.000        4892.475       -4893.040
G24  20308387.796          26.000       34389.364       -1502.313
C37  25151367.670          19.000           0.000       -2874.432
G29  24365411.976          16.000       89404.879       -4470.201
R18  22677646.393          21.000           0.000        1022.317
E09  24349404.258          14.000       48976.409       -2874.362
R01  23146825.787          11.000           0.000       -3579.530
R24  21438403.304          39.000           0.000       -5647.522
C30  26323562.477          23.000           0.000       -4824.797
R17  20214127.652          25.000           0.000       -2240.666
R03  22737204.962          25.000           0.000        -953.229
C39  36134148.350          32.000           0.000       -1851.899
C06  36210199.101          31.000       34760.695       -1503.336
C08  36300812.570          25.000       22905.358       -1095.450
C46  23314973.080          20.000           0.000        -180.834
C09  37156905.310          22.000        7967.734       -1327.703
C13  36629788.325          25.000       23374.608       -1015.521
E05  25384921.285          20.000       17181.118       -1147.147
C16  36389616.493          29.000       24431.409       -1630.499
C35  24228574.707          24.000           0.000       -1424.343
C19  23675464.517          17.000       29941.481       -1304.064
C20  23495086.590          33.000       59769.851       -2597.678
C38  36242255.009          27.000           0.000       -1383.577
C29  23523804.009          25.000       91993.937       -4000.562
C36  25231011.434          19.000      -24953.240        1090.388
E36  23860157.357          30.000        3872.011       -1292.043
J02  37610456.823          18.000       39588.169       -1801.647
C02  37404320.728          34.000        5613.180       -1864.843
R12  21596573.205          18.000           0.000        -141.005
> 2023 07 24 08 49 38.000560   0 35
G15  21705998.350          29.000       91577.983       -3817.387
G18  20843921.453          30.000        9886.024        -826.716
G23  22482493.793          24.000       -4059.543         169.305
G05  23598580.343          23.000       86912.970       -3625.056
J03  36083285.561          22.000       46290.464       -1930.248
R02  21404361.870          24.000           0.000       -2438.866
G13  24273508.800          17.000        9787.269       -4894.596
G24  20308670.800          25.000       35891.379       -1501.661
C37  25151914.792          14.000           0.000       -2868.679
G29  24366264.586          16.000       93874.511       -4469.765
R18  22677450.629          21.000           0.000        1027.312
E09  24349950.780          14.000       51851.998       -2877.824
R01  23147492.826          11.000           0.000       -3566.024
R24  21439453.477          36.000           0.000       -5648.508
C30  26324495.131          22.000           0.000       -4823.169
R17  20214544.963          25.000           0.000       -2241.075
R03  22737374.944          23.000           0.000        -945.180
C39  36134505.702          30.000           0.000       -1851.250
C06  36210488.401          35.000           0.044       -1503.923
C08  36301022.725          24.000       23999.408       -1092.345
C46  23315008.755          19.000           0.000        -184.613
C09  37157158.634          27.000        9295.515       -1328.237
C13  36629979.893          19.000       24390.377       -1015.657
E05  25385142.831          20.000       18327.431       -1144.040
C16  36389929.476          35.000       26062.010       -1630.578
C35  24228842.421          33.000           0.000       -1424.079
C19  23675717.842          26.000       31245.540       -1303.289
C20  23495584.845          34.000       62368.368       -2600.206
C38  36242521.225          24.000           0.000       -1384.114
C29  23524567.281          25.000       95994.928       -4001.960
C36  25230804.278          19.000      -26042.994        1089.891
E36  23860404.985          35.000        5164.361       -1292.416
J02  37610806.381          24.000       41389.518       -1802.136
C02  37404676.581          28.000        7477.370       -1863.867
R12  21596596.888          20.000           0.000        -139.408
> 2023 07 24 08 49 39.000560   0 35
G15  21706722.349          23.000       95395.387       -3817.409
G18  20844076.746          33.000       10712.742        -826.840
G23  22482457.519          28.000       -4228.676         169.023
G05  23599270.465          25.000       90537.811       -3624.776
J03  36083652.207          25.000       48220.282       -1929.633
R02  21404822.051          29.000           0.000       -2438.555
G13  24274447.450          15.000       14680.047       -4889.171
G24  20308952.005          21.000       37393.937       -1504.469
C37  25152462.812          15.000           0.000       -2869.765
G29  24367125.890          17.000       98343.982       -4469.451
R18  22677256.364          20.000           0.000        1020.943
E09  24350498.501          14.000       54731.709       -2881.272
R01  23148154.468          11.000           0.000       -3547.452
R24  21440506.648          34.000           0.000       -5648.615
C30  26325424.188          26.000           0.000       -4820.326
R17  20214965.872          28.000           0.000       -2241.823
R03  22737547.625          27.000           0.000        -949.793
C39  36134860.357          28.000           0.000       -1852.112
C06  36210781.298          36.000        1503.416       -1505.334
C08  36301232.280          24.000       25092.318       -1092.908
C46  23315042.032          20.000           0.000        -183.439
C09  37157411.359          25.000       10623.741       -1327.325
C13  36630175.657          25.000       25404.687       -1015.007
E05  25385361.080          20.000       19471.838       -1145.348
C16  36390242.759          33.000       27692.454       -1629.856
C35  24229113.734          33.000           0.000       -1424.727
C19  23675969.068          28.000       32547.847       -1301.190
C20  23496089.696          33.000          -0.593       -2598.226
C38  36242785.042          27.000           0.000       -1385.041
C29  23525331.152          26.000       99998.676       -4004.273
C36  25230597.121          18.000      -27133.483        1091.317
E36  23860649.616          37.000        6456.712       -1292.191
J02  37611150.842          23.000       43191.765       -1801.814
C02  37405033.334          24.000        9340.728       -1863.982
R12  21596620.872          24.000           0.000        -140.730
> 2023 07 24 08 49 40.000560   0 36
G15  21707448.746          26.000       99212.898       -3817.855
G18  20844232.938          35.000       11539.751        -827.353
G23  22482420.644          23.000       -4397.237         168.230
G05  23599967.482          26.000       94162.854       -3625.306
J03  36084018.254          26.000       50150.305       -1930.297
R02  21405288.229          26.000           0.000       -2438.029
G13  24275381.603          14.000       19575.038       -4899.585
G24  20309232.911          18.000       38900.812       -1510.156
C37  25153011.133          15.000           0.000       -2874.224
G29  24367974.302          18.000      102814.923       -4472.287
R18  22677062.698          20.000           0.000        1022.822
E09  24351045.622          15.000       57613.130       -2881.402
R01  23148812.812          12.000           0.000       -3522.523
R24  21441564.315          28.000           0.000       -5648.679
C30  26326361.339          27.000           0.000       -4820.643
R17  20215387.980          22.000           0.000       -2243.058
R03  22737721.504          28.000           0.000        -948.844
C39  36135215.011          30.000           0.000       -1852.205
C06  36211071.197          35.000        3006.975       -1503.324
C08  36301442.135          21.000       26184.698       -1091.858
C46  23315075.609          19.000           0.000        -184.875
C09  37157665.883          26.000       11951.717       -1328.371
C13  36630371.721          30.000       26420.027       -1016.198
E05  25385582.327          21.000       20618.261       -1146.502
C16  36390553.944          30.000       29322.266       -1630.763
C35  24229389.842          33.000           0.000       -1427.681
C19  23676219.394          28.000       33848.651       -1300.387
C20  23496591.548          35.000        2598.353       -2599.367
C38  36243049.159          28.000           0.000       -1386.161
C29  23526090.526          24.000      104003.053       -4004.784
C36  25230390.864          19.000      -28224.168        1090.720
E36  23860889.450          37.000        7748.401       -1292.113
J02  37611494.704          18.000       44993.031       -1799.555
C02  37405390.687          30.000       11204.771       -1863.664
R12  21596643.356          27.000           0.000        -140.112
C03  36215787.232          27.000       47120.633       -1886.248
> 2023 07 24 08 49 41.000560   0 35
G15  21708174.543          26.000      103030.613       -3817.511
G18  20844390.329          35.000           0.227        -827.510
G23  22482375.975          17.000       -4566.556         170.381
G05  23600663.301          26.000       97788.314       -3625.711
J03  36084385.800          26.000       52080.247       -1930.281
R02  21405738.217          21.000           0.000       -2438.666
G13  24276316.955          13.000       24476.899       -4903.106
G24  20309519.512          19.000       40411.826       -1512.326
C37  25153562.151          17.000           0.000       -2876.900
G29  24368833.208          19.000      107286.286       -4470.754
R18  22676872.329          20.000           0.000        1016.850
E09  24351592.443          15.000       60492.478       -2878.417
R01  23149467.858          13.000           0.000       -3518.881
R24  21442628.878          27.000           0.000       -5648.578
C30  26327298.790          25.000           0.000       -4821.849
R17  20215819.980          15.000           0.000       -2241.376
R03  22737895.384          31.000           0.000        -944.510
C39  36135570.265          32.000           0.000       -1852.243
C06  36211358.998          36.000        4510.509       -1502.929
C08  36301651.390          26.000       27276.824       -1092.651
C46  23315106.188          18.000           0.000        -186.237
C09  37157923.405          25.000       13280.987       -1330.670
C13  36630565.687          24.000       27436.023       -1016.915
E05  25385802.075          24.000       21766.032       -1148.051
C16  36390866.927          31.000           0.581       -1628.344
C35  24229666.551          33.000           0.000       -1427.157
C19  23676471.220          25.000       35149.024       -1300.480
C20  23497088.304          35.000        5197.075       -2599.277
C38  36243312.677          30.000           0.000       -1385.156
C29  23526853.498          29.000      108007.323       -4003.355
C36  25230180.110          20.000      -29314.838        1090.819
E36  23861135.879          38.000          -0.400       -1291.850
J02  37611841.264          16.000       46792.947       -1800.647
C02  37405748.939          30.000       13068.080       -1862.670
R12  21596658.646          24.000           0.000        -144.016
> 2023 07 24 08 49 42.000560   0 36
G15  21708901.240          25.000      106847.796       -3817.325
G18  20844554.315          34.000         828.994        -829.945
G23  22482340.899          21.000       -4736.565         169.779
G05  23601355.222          26.000      101414.063       -3625.831
J03  36084752.745          28.000       54010.847       -1930.834
R02  21406205.893          15.000           0.000       -2438.659
G12  25330630.969          18.000           0.000         102.015
G13  24277253.807          10.000       29385.757       -4905.436
G24  20309807.613          20.000       41923.485       -1510.256
C37  25154113.769          18.000           0.000       -2877.978
G29  24369697.210          19.000      111756.507       -4470.357
R18  22676679.863          23.000           0.000        1018.370
E09  24352139.265          15.000       63371.592       -2879.266
R01  23150122.305          15.000           0.000       -3511.542
R24  21443693.741          29.000           0.000       -5648.616
C30  26328223.050          26.000           0.000       -4822.735
R17  20216228.598          24.000           0.000       -2243.829
R03  22738068.364          31.000           0.000        -946.323
C39  36135924.320          28.000           0.000       -1851.886
C06  36211646.799          36.000        6014.245       -1503.560
C08  36301860.645          25.000       28369.170       -1092.244
C46  23315138.865          18.000           0.000        -182.445
C09  37158174.331          23.000       14610.801       -1329.721
C13  36630762.651          23.000       28452.528       -1016.404
E05  25386020.324          21.000       22913.649       -1148.096
C16  36391182.309          34.000        1630.361       -1630.961
C35  24229939.362          33.000           0.000       -1426.868
C19  23676722.146          30.000       36449.602       -1300.499
C20  23497587.758          33.000        7795.712       -2599.813
C38  36243573.796          27.000           0.000       -1385.295
C29  23527618.868          27.000      112010.903       -4003.831
C36  25229977.450          19.000      -30403.952        1088.845
E36  23861381.409          37.000        1292.596       -1293.554
J02  37612191.721          18.000       48594.573       -1802.276
C02  37406104.793          29.000       14929.911       -1860.323
R12  21596680.231          23.000           0.000        -146.741
> 2023 07 24 08 49 43.000560   0 37
G15  21709626.738          25.000      110664.936       -3817.159
G18  20844711.706          35.000        1658.449        -829.368
G23  22482306.423          26.000       -4906.035         169.058
G05  23602045.344          23.000      105039.967       -3626.267
J03  36085120.891          28.000       55941.940       -1931.173
R02  21406660.379          19.000           0.000       -2438.635
G12  25330518.247          13.000          -0.622         108.633
G13  24278192.457          11.000       34287.525       -4896.420
G24  20310090.317          20.000       43432.222       -1507.971
C37  25154666.587          19.000           0.000       -2879.435
G29  24370558.214          18.000      116226.134       -4468.815
R18  22676487.096          21.000           0.000        1018.442
E09  24352686.686          15.000       66252.453       -2882.423
R01  23150782.148          17.000           0.000       -3495.949
R24  21444753.507          32.000           0.000       -5649.260
C30  26329143.713          26.000           0.000       -4821.281
R17  20216642.911          24.000           0.000       -2245.468
R03  22738241.944          29.000           0.000        -945.958
C39  36136279.574          26.000           0.000       -1850.608
C06  36211930.402          34.000        7516.491       -1505.683
C08  36302069.300          24.000       29461.087       -1090.926
C46  23315175.440          18.000           0.000        -187.669
C09  37158427.956          24.000       15940.323       -1330.107
C13  36630959.315          24.000       29467.753       -1013.602
E05  25386236.474          26.000       24061.544       -1147.685
C16  36391495.592          35.000        3260.636       -1629.924
C35  24230210.075          34.000           0.000       -1425.592
C19  23676971.274          31.000       37750.540       -1301.418
C20  23498085.414          35.000       10394.803       -2598.304
C38  36243837.613          27.000           0.000       -1384.260
C29  23528383.639          27.000      116014.888       -4004.167
C36  25229772.992          20.000      -31492.131        1085.404
E36  23861626.340          37.000        2586.279       -1293.914
J02  37612541.579          19.000       50397.508       -1802.277
C02  37406461.546          26.000       16791.013       -1861.735
R12  21596702.116          25.000           0.000        -143.753
C03  36216871.582          27.000       52771.621       -1882.391
> 2023 07 24 08 49 44.000560   0 36
G15  21710352.236          22.000      114481.581       -3816.676
G18  20844870.297          37.000        2487.775        -830.363
G23  22482280.641          25.000       -5075.101         169.301
G05  23602732.768          22.000      108666.015       -3625.766
J03  36085490.235          29.000       57873.734       -1932.440
R02  21407103.472          29.000           0.000       -2437.760
G12  25330495.763          14.000        -110.754         110.379
C29  23529176.590          17.000           0.000       -4007.468
G13  24279119.415          12.000       39182.527       -4898.263
G24  20310382.914          20.000       44939.980       -1507.017
C37  25155221.203          20.000           0.000       -2879.306
G29  24371411.123          16.000      120700.353       -4473.088
R18  22676301.225          23.000           0.000        1023.844
E09  24353235.606          15.000       69134.181       -2881.665
R01  23151436.296          18.000           0.000       -3478.260
R24  21445807.578          36.000           0.000       -5649.195
C30  26330068.573          26.000           0.000       -4819.012
R17  20217053.027          23.000           0.000       -2246.667
R03  22738423.618          26.000           0.000        -945.101
C39  36136634.229          31.000           0.000       -1851.130
C06  36212219.702          34.000        9021.537       -1504.811
C08  36302275.258          18.000       30552.136       -1090.983
C46  23315215.312          19.000           0.000        -186.992
C09  37158683.978          31.000       17270.020       -1328.576
C13  36631156.878          24.000       30480.500       -1013.939
E05  25386453.224          27.000       25210.777       -1150.428
C16  36391809.774          35.000        4890.103       -1629.378
C35  24230480.487          30.000           0.000       -1425.780
C19  23677221.601          26.000       39051.928       -1301.733
C20  23498582.470          34.000       12992.679       -2598.829
C38  36244099.032          25.000           0.000       -1385.427
C36  25229563.736          21.000      -32577.845        1085.939
E36  23861870.671          35.000        3879.442       -1293.870
J02  37612888.139          27.000       52199.975       -1803.107
C02  37406820.997          37.000       18653.450       -1862.533
R12  21596732.395          26.000           0.000        -142.544
> 2023 07 24 08 49 45.000560   0 36
G15  21711078.633          28.000      118298.274       -3816.753
G18  20845029.786          36.000        3318.204        -830.286
G23  22482241.968          26.000       -5244.409         169.086
G05  23603417.494          24.000      112292.012       -3626.366
J03  36085856.282          29.000       59805.596       -1931.677
R02  21407546.565          26.000           0.000       -2437.619
G12  25330473.278          14.000        -221.758         110.671
C29  23529950.954          20.000           0.000       -4006.662
G13  24280048.772          12.000       44074.715       -4888.560
G24  20310670.116          20.000       46446.221       -1506.251
C37  25155778.817          21.000           0.000       -2878.424
G29  24372262.534          16.000      125174.008       -4471.836
R18  22676112.056          15.000           0.000        1012.977
E09  24353785.725          15.000       72015.936       -2881.802
R01  23152082.948          18.000           0.000       -3477.355
R24  21446861.348          34.000           0.000       -5649.427
C30  26330991.934          27.000           0.000       -4819.589
R17  20217464.342          23.000           0.000       -2247.186
R03  22738602.894          21.000           0.000        -945.732
C39  36136989.483          36.000           0.000       -1851.814
C06  36212511.400          39.000       10525.495       -1504.084
C08  36302483.014          19.000       31642.822       -1090.132
C46  23315256.983          27.000           0.000        -186.213
C09  37158941.800          32.000       18598.453       -1328.705
C13  36631352.043          27.000       31494.946       -1014.226
E05  25386673.572          22.000       26360.041       -1148.414
C16  36392123.057          39.000        6520.060       -1630.010
C35  24230748.202          28.000           0.000       -1427.450
C19  23677472.527          20.000       40353.036       -1300.564
C20  23499088.520          34.000       15591.345       -2597.390
C38  36244362.250          20.000           0.000       -1384.464
C36  25229349.984          27.000      -33664.233        1086.134
E36  23862120.098          37.000        5173.730       -1293.256
J02  37613230.502          21.000       54001.880       -1802.913
C02  37407179.249          38.000       20516.741       -1864.070
R12  21596757.877          30.000           0.000        -143.431
> 2023 07 24 08 49 46.000560   0 36
G15  21711804.131          30.000      122115.303       -3817.295
G18  20845188.077          38.000        4149.142        -829.446
G23  22482201.796          19.000       -5414.273         170.526
G05  23604110.015          25.000      115917.992       -3626.176
J03  36086225.326          28.000       61737.518       -1932.329
R02  21408001.950          30.000           0.000       -2437.251
G12  25330453.192          13.000        -332.040         107.656
C29  23530711.827          17.000           0.000       -4004.606
G13  24280977.229          12.000       48964.317       -4890.744
G24  20310961.814          19.000       47953.709       -1507.243
C37  25156332.234          20.000           0.000       -2878.935
G29  24373111.846          16.000      129646.051       -4471.463
R18  22675917.790          17.000           0.000        1006.772
E09  24354335.844          16.000       74898.549       -2883.402
R01  23152729.900          17.000           0.000       -3488.457
R24  21447915.419          34.000           0.000       -5650.012
C30  26331918.892          32.000           0.000       -4820.803
R17  20217882.253          27.000           0.000       -2248.619
R03  22738779.172          22.000           0.000        -946.839
C39  36137346.835          37.000           0.000       -1851.350
C06  36212801.000          38.000          -0.009       -1503.222
C08  36302688.672          19.000       32733.802       -1091.711
C46  23315291.460          24.000           0.000        -186.082
C09  37159207.116          33.000       19928.426       -1328.725
C13  36631547.507          27.000       32509.812       -1015.465
E05  25386893.020          24.000       27507.772       -1148.758
C16  36392434.242          41.000        8150.442       -1628.543
C35  24231018.615          25.000           0.000       -1429.132
C19  23677720.755          23.000       41653.736       -1300.965
C20  23499584.076          33.000       18189.374       -2598.364
C38  36244626.067          22.000           0.000       -1384.312
C36  25229136.532          27.000      -34749.707        1084.380
E36  23862368.926          36.000        6468.165       -1292.812
J02  37613574.964          21.000       55805.468       -1804.697
C02  37407537.501          35.000       22381.813       -1864.977
R12  21596773.766          26.000           0.000        -143.374
> 2023 07 24 08 49 47.000560   0 36
G15  21712532.027          29.000      125933.007       -3817.978
G18  20845349.965          38.000        4980.879        -832.591
G23  22482170.317          18.000       -5584.553         170.025
G05  23604798.638          20.000      119543.701       -3625.917
J03  36086595.270          30.000       63669.712       -1932.217
R02  21408455.836          26.000           0.000       -2436.371
G12  25330433.706          13.000        -438.521         106.438
C29  23531477.497          16.000           0.000       -4004.928
G13  24281906.586          12.000       53854.741       -4890.607
G24  20311247.816          19.000       49461.200       -1507.283
C37  25156885.650          20.000           0.000       -2879.706
G29  24373962.357          16.000      134116.438       -4468.667
R18  22675727.722          17.000           0.000        1010.764
E09  24354885.664          17.000       77780.287       -2881.018
R01  23153378.951          16.000           0.000       -3501.624
R24  21448969.489          37.000           0.000       -5650.476
C30  26332847.949          29.000           0.000       -4820.292
R17  20218297.465          27.000           0.000       -2249.775
R03  22738959.347          26.000           0.000        -945.265
C39  36137703.888          37.000           0.000       -1851.437
C06  36213088.800          40.000        1504.026       -1504.122
C08  36302899.126          18.000       33826.890       -1094.623
C46  23315324.737          26.000           0.000        -186.984
C09  37159462.240          34.000           0.293       -1329.101
C13  36631744.471          27.000       33525.664       -1016.370
E05  25387110.669          24.000       28655.841       -1147.404
C16  36392746.926          42.000        9780.621       -1629.476
C35  24231294.424          26.000           0.000       -1428.061
C19  23677974.080          23.000       42954.901       -1302.192
C20  23500079.334          39.000       20788.009       -2598.477
C38  36244890.784          23.000           0.000       -1384.552
C36  25228929.076          21.000      -35834.282        1085.423
E36  23862616.554          36.000        7763.351       -1294.124
J02  37613923.922          21.000       57610.158       -1805.017
C02  37407896.652          39.000       24247.226       -1865.261
R12  21596789.655          16.000           0.000        -144.682
> 2023 07 24 08 49 48.000560   0 36
G15  21713256.625          26.000      129750.123       -3815.436
G18  20845513.351          32.000        5811.072        -828.723
G23  22482142.137          23.000       -5755.133         171.021
G05  23605486.961          24.000      123169.120       -3625.215
J03  36086964.914          28.000       65601.558       -1930.869
R02  21408904.325          18.000           0.000       -2436.176
G12  25330412.420          13.000        -542.639          99.896
C29  23532246.765          15.000           0.000       -4010.383
G13  24282835.643          12.000       58745.130       -4890.154
G24  20311532.918          17.000       50968.741       -1506.817
C37  25157437.269          18.000           0.000       -2880.059
G29  24374813.468          17.000      138584.722       -4467.540
R18  22675545.748          16.000           0.000        1017.826
E09  24355434.583          17.000       80663.886       -2884.250
R01  23154042.991          12.000           0.000       -3512.010
R24  21450025.658          38.000           0.000       -5649.136
C30  26333780.003          28.000           0.000       -4818.919
R17  20218713.577          31.000           0.000       -2248.439
R03  22739121.235          22.000           0.000        -946.262
C39  36138059.142          38.000           0.000       -1848.778
C06  36213375.402          41.000        3005.628       -1500.835
C08  36303106.882          18.000       34919.527       -1089.230
C46  23315362.211          22.000           0.000        -186.955
C09  37159716.164          31.000        1326.276       -1324.152
C13  36631938.737          30.000       34541.074       -1014.368
E05  25387326.819          25.000       29801.983       -1144.756
C16  36393059.309          41.000       11408.242       -1627.493
C35  24231566.635          17.000           0.000       -1427.778
C19  23678226.205          20.000       44255.944       -1300.932
C20  23500578.488          38.000           0.414       -2593.884
C38  36245155.501          25.000           0.000       -1384.202
C36  25228720.720          15.000      -36919.938        1088.073
E36  23862863.284          35.000        9055.673       -1291.528
J02  37614269.583          19.000       59415.667       -1806.381
C02  37408256.103          38.000       26112.955       -1865.522
R12  21596815.137          17.000           0.000        -143.767
> 2023 07 24 08 49 49.000560   0 37
G15  21713981.224          27.000      133564.699       -3813.659
G18  20845660.250          34.000          -0.605        -829.681
G23  22482113.057          19.000       -5925.922         170.141
G05  23606177.383          22.000      126792.070       -3621.091
J03  36087333.059          32.000       67531.435       -1929.188
R02  21409361.509          20.000           0.000       -2435.415
G12  25330392.634          13.000        -641.158          97.430
C29  23533015.432          15.000           0.000       -4006.313
G13  24283764.100          12.000       63635.730       -4888.258
G24  20311819.220          18.000       52475.107       -1506.609
C37  25157989.786          16.000           0.000       -2874.465
G29  24375658.283          18.000      143050.961       -4464.913
G32  25503961.675          18.000           0.000         201.339
R18  22675351.482          16.000           0.000        1009.132
E09  24355985.302          17.000       83549.877       -2884.361
R01  23154699.536          14.000           0.000       -3517.836
R24  21451082.126          36.000           0.000       -5647.560
C30  26334706.062          29.000           0.000       -4818.152
R17  20219131.188          30.000           0.000       -2247.521
R03  22739295.715          21.000           0.000        -942.652
C39  36138413.797          35.000           0.000       -1848.316
C06  36213667.400          39.000        4506.470       -1501.757
C08  36303314.039          17.000       36008.929       -1090.274
C46  23315396.987          23.000           0.000        -185.503
C09  37159969.488          34.000          -0.380       -1326.111
C13  36632135.101          27.000       35554.005       -1012.293
E05  25387543.270          26.000       30946.068       -1138.582
C16  36393370.794          42.000       13035.201       -1626.476
C35  24231844.543          28.000           0.000       -1426.376
C19  23678478.630          17.000       45555.604       -1298.606
C20  23501074.944          39.000        2595.138       -2595.745
C38  36245419.618          26.000           0.000       -1380.195
C36  25228518.960          18.000      -38009.225        1089.910
E36  23863110.312          35.000       10347.964       -1292.899
J02  37614614.045          18.000       61219.206       -1801.243
C02  37408619.452          39.000       27977.563       -1863.119
R12  21596838.821          18.000           0.000        -139.712
> 2023 07 24 08 49 50.000560   0 37
G15  21714704.023          26.000      137378.621       -3814.868
G18  20845818.840          36.000         831.225        -836.480
G23  22482084.277          21.000       -6096.149         170.270
G05  23606863.908          24.000      130413.103       -3621.411
J03  36087699.106          26.000       69460.262       -1928.675
R02  21409816.894          24.000           0.000       -2435.110
G12  25330376.745          13.000        -739.579          99.171
C29  23533783.201          15.000           0.000       -4008.036
G13  24284692.257          14.000       68523.357       -4887.250
G24  20312108.520          19.000       53983.253       -1509.841
C37  25158544.702          15.000           0.000       -2876.149
G29  24376504.897          18.000      147514.625       -4460.378
G32  25503938.891           9.000           0.452         196.825
R18  22675162.913          17.000           0.000        1032.198
E09  24356533.323          16.000       86432.017       -2881.034
R01  23155353.684          14.000           0.000       -3532.449
R24  21452136.796          35.000           0.000       -5648.933
C30  26335631.821          28.000           0.000       -4816.459
R17  20219548.799          27.000           0.000       -2247.488
R03  22739463.299          26.000           0.000        -940.618
C39  36138775.346          36.000           0.000       -1855.152
C06  36213955.500          40.000        6009.067       -1509.339
C08  36303522.095          17.000       37098.869       -1091.436
C46  23315432.362          24.000           0.000        -182.847
C09  37160222.213          32.000        1326.429       -1326.720
C13  36632330.265          28.000       36566.460       -1012.558
E05  25387757.022          24.000       32086.113       -1141.415
C16  36393675.383          37.000       14663.318       -1628.966
C35  24232124.849          25.000           0.000       -1427.789
C19  23678729.257          18.000       46853.469       -1297.799
C20  23501575.298          39.000        5192.107       -2600.209
C38  36245687.033          25.000           0.000       -1381.137
C36  25228309.705          20.000      -39099.402        1090.662
E36  23863352.845          38.000       11642.598       -1300.079
J02  37614958.206          18.000       63018.421       -1797.950
C02  37408982.800          40.000       29841.523       -1865.876
R12  21596865.503          19.000           0.000        -139.969
> 2023 07 24 08 49 51.000560   0 37
G15  21715430.420          28.000      141194.852       -3818.152
G18  20845974.732          39.000        1666.383        -836.058
G23  22482051.899          20.000       -6265.421         168.613
G05  23607551.632          24.000      134036.246       -3625.255
J03  36088066.651          24.000       71387.302       -1927.969
R02  21410277.974          25.000           0.000       -2437.451
G12  25330355.160          13.000        -841.067         103.310
C29  23534550.969          15.000           0.000       -4007.577
G13  24285619.216          15.000       73411.203       -4887.946
G24  20312399.019          19.000       55492.229       -1509.758
C37  25159094.222          14.000           0.000       -2879.483
G29  24377350.611          16.000      151976.182       -4464.013
G32  25503905.614           9.000        -196.470         198.436
R18  22674965.050          16.000           0.000        1021.326
E09  24357082.243          16.000       89313.215       -2881.740
R01  23156015.026          12.000           0.000       -3546.562
R24  21453192.066          37.000           0.000       -5651.991
C30  26336557.880          22.000           0.000       -4815.914
R17  20219970.907          24.000           0.000       -2251.247
R03  22739649.470          17.000           0.000        -945.835
C39  36139137.196          32.000           0.000       -1853.741
C06  36214244.200          35.000        7514.768       -1505.905
C08  36303732.249          17.000       38191.019       -1095.107
C46  23315473.434          22.000           0.000        -183.262
C09  37160475.538          25.000        2654.368       -1327.516
C13  36632526.330          27.000       37580.289       -1014.933
E05  25387974.671          28.000       33231.533       -1147.366
C16  36393988.966          30.000       16295.750       -1632.280
C35  24232404.555          23.000           0.000       -1430.691
C19  23678978.085          18.000       48152.232       -1300.069
C20  23502075.951          33.000        7791.320       -2600.343
C38  36245952.050          23.000           0.000       -1378.883
C36  25228104.647          26.000      -40188.093        1086.492
E36  23863598.674          38.000       12940.398       -1299.231
J02  37615305.666          26.000       64816.303       -1797.844
C02  37409341.652          33.000       31708.592       -1867.073
R12  21596915.268          24.000           0.000        -144.879
> 2023 07 24 08 49 52.000560   0 38
G15  21716156.817          28.000      145014.588       -3821.236
G18  20846136.020          42.000        2503.135        -837.290
G23  22482023.119          20.000       -6431.011         162.811
G05  23608241.155          23.000      137663.019       -3628.320
J03  36088435.696          26.000       73317.867       -1932.768
R02  21410731.860          26.000           0.000       -2439.454
G10  25292760.586          16.000           0.000         457.483
G12  25330333.275          12.000        -948.080         110.821
C29  23535318.738          15.000           0.000       -4007.598
G13  24286547.373          16.000       78299.166       -4887.900
G24  20312684.121          19.000       57003.760       -1512.823
C37  25159645.540          15.000           0.000       -2880.245
G29  24378197.825          15.000      156442.284       -4469.576
G32  25503872.037           9.000        -393.907         193.363
R18  22674773.482          17.000           0.000        1020.976
E09  24357630.563          16.000       92195.809       -2883.292
R01  23156678.766          12.000           0.000       -3552.322
R24  21454246.136          36.000           0.000       -5655.102
C30  26337492.933          24.000           0.000       -4817.453
R17  20220393.914          25.000           0.000       -2254.593
R03  22739834.442          20.000           0.000        -948.889
C39  36139493.349          35.000           0.000       -1855.021
C06  36214533.800          38.000        9021.659       -1508.060
C08  36303941.804          16.000       39285.150       -1094.628
C46  23315507.910          21.000           0.000        -187.782
C09  37160729.163          22.000        3982.833       -1330.901
C13  36632725.092          25.000       38598.042       -1018.925
E05  25388191.721          27.000       34380.216       -1149.103
C16  36394306.446          36.000       17928.743       -1634.143
C35  24232681.264          24.000           0.000       -1434.748
C19  23679225.413          18.000       49454.352       -1304.294
C20  23502577.504          37.000       10391.657       -2599.832
C38  36246215.567          15.000           0.000       -1379.989
C36  25227900.788          26.000      -41275.108        1086.877
E36  23863846.003          43.000       14239.656       -1299.213
J02  37615655.524          24.000       66616.353       -1801.248
C02  37409696.906          33.000       33576.280       -1867.576
R12  21596960.537          20.000           0.000        -150.048
> 2023 07 24 08 49 53.000560   0 37
G15  21716885.013          29.000      148837.166       -3823.012
G18  20846296.110          44.000        3341.333        -838.355
G23  22481997.937          20.000       -6593.397         162.435
G05  23608932.776          22.000      141293.619       -3632.001
J03  36088804.441          26.000       75250.967       -1934.043
R02  21411188.144          27.000           0.000       -2440.660
G10  25292667.651          11.000           0.820         458.698
G12  25330308.692          12.000       -1061.647         114.927
C29  23536087.106          16.000           0.000       -4008.509
G13  24287475.231          15.000       83187.574       -4890.679
G24  20312972.822          20.000       58518.283       -1515.706
C37  25160200.755          15.000           0.000       -2882.654
G29  24379047.137          14.000      160913.327       -4473.645
R18  22674582.215          17.000           0.000        1030.576
E09  24358179.183          17.000       95080.077       -2884.969
R01  23157343.106          12.000           0.000       -3573.521
R24  21455305.003          37.000           0.000       -5656.699
C30  26338425.587          22.000           0.000       -4820.761
R17  20220819.919          25.000           0.000       -2258.437
R03  22740015.816          21.000           0.000        -952.302
C39  36139842.008          36.000           0.000       -1855.894
C06  36214822.200          38.000       10529.586       -1509.065
C08  36304154.357          17.000       40382.125       -1099.240
C46  23315548.082          21.000           0.000        -191.750
C09  37160983.087          25.000        5314.201       -1332.245
C13  36632921.756          26.000       39617.733       -1019.936
E05  25388408.471          27.000       35530.989       -1152.163
C16  36394625.125          37.000       19562.766       -1632.979
C35  24232961.870          16.000           0.000       -1433.971
C19  23679477.239          18.000       50760.106       -1307.793
C20  23503076.359          38.000       12992.621       -2601.963
C38  36246481.483          19.000           0.000       -1384.771
C36  25227696.629          26.000      -42361.222        1084.634
E36  23864093.632          43.000       15540.190       -1300.947
J02  37616006.581          25.000       68419.978       -1806.820
C02  37410053.959          35.000       35444.493       -1868.409
R12  21596986.619          21.000           0.000        -152.547
> 2023 07 24 08 49 54.000560   0 37
G15  21717612.010          30.000      152660.289       -3823.491
G18  20846457.098          44.000        4180.200        -839.732
G23  22481973.054          23.000       -6755.903         162.886
G05  23609621.999          24.000      144926.544       -3633.167
J03  36089173.785          27.000       77185.342       -1935.282
R02  21411649.825          28.000           0.000       -2441.457
G10  25292577.413           9.000        -459.043         464.717
G12  25330288.007          13.000       -1181.031         120.828
C29  23536854.275          14.000           0.000       -4009.235
G13  24288405.187          16.000       88078.554       -4891.642
G24  20313262.421          18.000       60034.539       -1516.512
C37  25160758.070          16.000           0.000       -2885.034
G29  24379896.749          12.000      165387.018       -4473.460
R18  22674388.849          17.000           0.000        1025.505
E09  24358728.103          17.000       97964.623       -2884.598
R01  23158007.147           9.000           0.000       -3572.404
R24  21456360.872          36.000           0.000       -5656.552
C30  26339357.043          25.000           0.000       -4821.995
R17  20221246.224          28.000           0.000       -2259.622
R03  22740197.190          21.000           0.000        -953.764
C39  36140191.566          37.000           0.000       -1856.352
C06  36215107.902          38.000       12037.716       -1507.230
C08  36304367.210          18.000       41482.721       -1101.190
C46  23315587.954          21.000           0.000        -193.887
C09  37161239.409          30.000        6646.992       -1333.347
C13  36633120.518          20.000       40635.779       -1018.019
E05  25388624.921          27.000       36682.564       -1151.608
C16  36394942.905          40.000       21196.969       -1633.378
C35  24233244.574          18.000           0.000       -1435.658
C19  23679727.566          17.000       52066.585       -1305.724
C20  23503574.314          39.000       15593.545       -2601.753
C38  36246751.596          24.000           0.000       -1387.388
C36  25227489.472          27.000      -43446.043        1085.023
E36  23864341.560          44.000       16841.259       -1300.630
J02  37616354.040          20.000       70228.348       -1811.588
C02  37410412.211          37.000       37313.501       -1869.071
R12  21597015.399          23.000           0.000        -153.580
> 2023 07 24 08 49 55.000560   0 37
G15  21718339.307          28.000      156483.783       -3823.738
G18  20846617.187          40.000        5019.859        -839.663
G23  22481946.073          25.000       -6919.763         164.405
G05  23610312.421          27.000      148559.236       -3633.035
J03  36089538.632          21.000       79118.723       -1931.627
R02  21412110.006          29.000           0.000       -2442.155
G10  25292494.370           9.000        -923.905         461.953
G12  25330264.922          12.000       -1301.372         119.269
C29  23537623.542          15.000           0.000       -4010.511
G13  24289336.642          16.000       92972.453       -4897.434
G24  20313548.423          18.000       61551.069       -1515.831
C37  25161318.981          16.000           0.000       -2888.126
G29  24380742.163          11.000      169859.855       -4471.878
R18  22674195.183          17.000           0.000        1015.490
E09  24359277.623          18.000      100850.002       -2885.880
R01  23158674.784          10.000           0.000       -3550.206
R24  21457414.343          34.000           0.000       -5656.609
C30  26340282.202          29.000           0.000       -4823.097
R17  20221682.422          27.000           0.000       -2260.789
R03  22740386.959          23.000           0.000        -952.497
C39  36140549.518          34.000           0.000       -1856.362
C06  36215396.902          38.000       13545.948       -1508.052
C08  36304579.463          19.000       42584.281       -1102.037
C46  23315634.122          27.000           0.000        -195.087
C09  37161499.030          26.000        7980.820       -1334.690
C13  36633314.184          29.000       41654.327       -1018.667
E05  25388842.270          23.000       37834.402       -1151.421
C16  36395255.889          40.000       22831.410       -1634.689
C35  24233521.582          23.000           0.000       -1437.029
C19  23679975.494          18.000       53371.046       -1304.729
C20  23504073.169          39.000       18194.892       -2601.080
C38  36247021.409          22.000           0.000       -1393.738
C36  25227281.416          21.000      -44531.120        1084.700
E36  23864590.388          42.000       18142.895       -1302.222
J02  37616704.198          18.000       72041.011       -1811.939
C02  37410774.660          38.000       39183.730       -1870.486
R12  21597048.976          25.000           0.000        -154.267
> 2023 07 24 08 49 56.000560   0 37
G15  21719066.903          29.000      160307.210       -3822.242
G18  20846776.677          41.000        5859.890        -840.818
G23  22481922.389          24.000       -7085.511         166.911
G05  23611001.344          25.000      152192.829       -3633.267
J03  36089901.381          18.000       81051.420       -1932.401
R02  21412561.194          25.000           0.000       -2443.737
G10  25292405.332          13.000       -1385.266         461.309
G12  25330239.740          13.000       -1418.841         115.814
C29  23538393.709          16.000           0.000       -4010.460
G13  24290266.299          15.000       97871.439       -4902.146
G24  20313837.423          18.000       63066.709       -1516.337
C37  25161875.096          15.000           0.000       -2892.033
G29  24381592.075          13.000      174332.123       -4471.802
R18  22674006.913          18.000           0.000        1003.130
E09  24359826.843          18.000      103736.022       -2886.199
R01  23159336.127          13.000           0.000       -3528.001
R24  21458468.413          32.000           0.000       -5656.158
C30  26341207.062          30.000           0.000       -4823.046
R17  20222104.530          26.000           0.000       -2263.201
R03  22740570.732          26.000           0.000        -950.328
C39  36140908.969          34.000           0.000       -1856.031
C06  36215686.202          38.000       15054.180       -1508.165
C08  36304791.416          18.000       43685.142       -1101.202
C46  23315679.391          26.000           0.000        -194.701
C09  37161756.251          22.000        9314.679       -1334.064
C13  36633506.951          28.000       42673.507       -1020.196
E05  25389060.219          27.000       38987.552       -1154.463
C16  36395567.073          40.000       24465.710       -1634.185
C35  24233795.892          24.000           0.000       -1436.225
C19  23680222.523          23.000       54676.264       -1305.141
C20  23504572.623          39.000       20795.831       -2600.592
C36  25227075.159          26.000      -45615.005        1082.926
E36  23864837.117          42.000       19444.715       -1301.473
C38  36247301.116          19.000       58126.727       -1388.969
J02  37617052.856          20.000       73850.951       -1808.054
C02  37411135.910          40.000       41054.176       -1869.729
R12  21597079.255          22.000           0.000        -154.164
> 2023 07 24 08 49 57.000560   0 38
G15  21719796.298          27.000      164129.521       -3822.298
G18  20846937.366          40.000        6700.344        -841.003
G23  22481896.607          23.000       -7253.411         167.550
G05  23611693.864          27.000      155825.895       -3632.103
J03  36090274.023          17.000       82981.346       -1927.039
R02  21413014.780          24.000           0.000       -2442.289
G10  25292317.193          16.000       -1846.852         462.343
G12  25330219.354          14.000       -1537.278         118.451
C29  23539163.576          17.000           0.000       -4011.146
G13  24291199.253          15.000      102773.484       -4903.236
G24  20314124.025          18.000       64582.984       -1518.033
C37  25162431.811          14.000           0.000       -2889.257
G29  24382442.886          13.000      178806.137       -4476.682
R18  22673815.645          23.000           0.000        1005.348
E09  24360376.362          19.000      106622.082       -2886.004
R01  23159989.974          15.000           0.000       -3526.835
R24  21459521.584          34.000           0.000       -5656.372
C30  26342130.123          30.000           0.000       -4822.808
R17  20222532.334          25.000           0.000       -2262.588
R03  22740749.708          25.000           0.000        -951.058
C39  36141266.922          34.000           0.000       -1856.157
C06  36215977.001          38.000       16562.302       -1507.841
C08  36305004.868          19.000       44786.480       -1101.174
C46  23315720.762          27.000           0.000        -193.070
C09  37162011.974          18.000       10647.685       -1332.050
C13  36633698.218          25.000       43692.115       -1017.719
E05  25389280.867          28.000       40140.449       -1152.496
C16  36395880.956          39.000       26100.004       -1634.398
C35  24234071.401          28.000           0.000       -1436.266
C19  23680470.152          23.000       55980.948       -1303.575
C20  23505073.576          38.000       23396.608       -2600.092
C38  36247556.539          12.000           0.000       -1391.151
C36  25226865.305          27.000      -46698.204        1083.164
E36  23865084.746          41.000       20746.765       -1303.172
E04  27169240.726          18.000           0.000       -3777.507
J02  37617400.316          21.000       75658.090       -1805.966
C02  37411495.361          40.000       42923.627       -1868.512
R12  21597112.532          23.000           0.000        -153.630
> 2023 07 24 08 49 58.000560   0 37
G15  21720525.093          29.000      167950.930       -3820.318
G18  20847098.354          42.000        7538.396        -838.083
G23  22481864.829          24.000       -7421.344         168.409
G05  23612386.685          29.000      159456.705       -3628.875
J03  36090644.567          19.000       84908.296       -1926.877
R02  21413478.559          24.000           0.000       -2438.254
G10  25292225.457          15.000       -2310.247         464.710
G12  25330198.968          13.000       -1660.574         125.110
C29  23539933.143          17.000           0.000       -4011.103
G13  24292128.010          15.000      107677.233       -4903.674
G24  20314412.725          19.000       66102.339       -1519.634
C37  25162989.425          14.000           0.000       -2886.642
G29  24383294.297          13.000      183280.831       -4473.359
R18  22673627.376          25.000           0.000        1006.245
E09  24360925.282          24.000      109506.885       -2883.398
R01  23160646.519          17.000           0.000       -3522.737
R24  21460574.755          34.000           0.000       -5654.793
C30  26343049.586          31.000           0.000       -4819.565
R17  20222952.343          23.000           0.000       -2259.814
R03  22740924.787          25.000           0.000        -949.085
C39  36141618.578          32.000           0.000       -1852.643
C06  36216267.500          38.000       18067.643       -1504.345
C08  36305220.119          19.000       45885.605       -1095.932
C46  23315761.834          27.000           0.000        -192.141
C09  37162266.198          18.000       11980.660       -1332.419
C13  36633887.987          25.000       44708.703       -1015.293
E05  25389499.715          28.000       41292.531       -1149.141
C16  36396193.040          38.000       27731.414       -1630.437
C35  24234349.309          29.000           0.000       -1435.456
C19  23680713.883          22.000       57283.468       -1301.487
C20  23505570.932          38.000       25994.350       -2597.703
C38  36247822.455          12.000           0.000       -1386.863
C36  25226653.951          28.000      -47781.869        1084.448
E36  23865332.074          41.000       22046.298       -1298.620
E04  27169867.592          15.000          -0.501       -3771.812
J02  37617743.278          20.000       77462.816       -1805.846
C02  37411853.013          40.000       44791.025       -1865.322
> 2023 07 24 08 49 59.000560   0 38
G15  21721252.690          30.000      171769.823       -3817.692
G18  20847253.047          40.000        8376.619        -838.459
G23  22481833.051          24.000       -7591.845         171.229
G05  23613082.203          28.000      163085.018       -3627.507
J03  36091012.712          25.000       86835.531       -1927.722
R02  21413937.541          21.000           0.000       -2436.875
G10  25292134.320          16.000       -2773.037         459.921
G12  25330176.484          12.000       -1782.850         121.546
C29  23540703.010          18.000           0.000       -4013.135
G13  24293055.867          13.000      112581.459       -4906.191
G24  20314707.421          20.000       67621.753       -1520.180
C37  25163547.339          15.000           0.000       -2887.706
G29  24384144.808          11.000      187756.057       -4476.195
R18  22673436.108          20.000           0.000        1000.063
E09  24361474.202          21.000      112389.660       -2882.205
R01  23161301.866          18.000           0.000       -3509.842
R24  21461630.324          36.000           0.000       -5654.279
C30  26343966.352          31.000           0.000       -4818.552
R17  20223375.950          26.000           0.000       -2258.534
R03  22741109.159          24.000           0.000        -946.351
C39  36141974.732          33.000           0.000       -1852.493
C06  36216558.598          38.000       19572.787       -1505.796
C08  36305429.974          20.000       46980.838       -1095.111
C46  23315799.008          27.000           0.000        -191.693
C09  37162522.521          23.000       13311.392       -1329.657
C13  36634078.655          25.000       45723.454       -1014.303
E05  25389720.362          27.000       42440.917       -1148.261
C16  36396504.524          40.000       29362.553       -1633.868
C35  24234626.317          25.000           0.000       -1434.311
C19  23680957.614          22.000       58582.902       -1298.421
C20  23506072.185          39.000       28592.022       -2598.376
C38  36248090.169          13.000           0.000       -1384.493
C36  25226441.098          27.000      -48867.754        1087.359
E36  23865577.305          39.000       23345.802       -1301.259
E04  27170620.671          13.000        3766.942       -3769.377
J02  37618088.040          20.000       79266.944       -1804.163
C01  37151433.798          26.000           0.000       -1837.123
C02  37412211.565          37.000       46655.820       -1864.619
> 2023 07 24 08 50 00.000560   0 37
G15  21721982.085          26.000      175587.758       -3818.922
G18  20847411.937          36.000        9218.112        -843.149
G23  22481798.875          25.000       -7764.305         172.704
G05  23613776.523          25.000      166713.357       -3631.435
J03  36091376.960          23.000       88760.417       -1925.441
R02  21414404.917          27.000           0.000       -2437.204
G10  25292043.782          17.000       -3231.049         456.360
G12  25330152.201          12.000       -1908.000         126.398
C29  23541473.477          18.000           0.000       -4013.778
G13  24293985.224          13.000      117486.828       -4904.506
G24  20314997.320          20.000       69140.637       -1518.776
C37  25164103.753          16.000           0.000       -2886.847
G29  24384995.019          10.000      192230.971       -4473.806
R18  22673246.040          18.000           0.000         989.161
E09  24362022.523          21.000      115271.725       -2882.778
R01  23161955.413          17.000           0.000       -3507.663
R24  21462689.491          34.000           0.000       -5655.717
C30  26344889.113          26.000           0.000       -4817.236
R17  20223799.556          27.000           0.000       -2259.853
R03  22741289.334          25.000           0.000        -948.015
C39  36142331.185          34.000           0.000       -1856.066
C06  36216851.495          38.000       21080.547       -1509.237
C08  36305641.328          19.000       48075.661       -1095.142
C46  23315836.782          25.000           0.000        -193.743
C09  37162778.544          29.000       14640.922       -1330.664
C13  36634276.218          20.000       46738.230       -1015.886
E05  25389939.810          30.000       43590.408       -1151.418
C16  36396812.411          31.000       30996.535       -1635.384
C35  24234898.229          29.000           0.000       -1435.203
C19  23681203.744          20.000       59881.081       -1298.483
C20  23506575.237          35.000       31191.749       -2601.200
C38  36248355.486          25.000           0.000       -1384.986
C36  25226230.344          28.000      -49955.747        1087.939
E36  23865825.833          36.000       24648.386       -1304.625
E04  27171326.082          14.000        7538.577       -3775.138
J02  37618428.304          24.000       81067.858       -1800.180
C02  37412570.117          35.000       48521.501       -1865.849
> 2023 07 24 08 50 01.000560   0 37
G15  21722711.180          24.000      179408.401       -3821.685
G18  20847570.527          36.000       10061.649        -843.692
G23  22481769.495          22.000       -7936.054         170.650
G05  23614467.844          22.000      170344.610       -3631.249
J03  36091742.706          21.000       90685.686       -1926.448
R02  21414869.296          26.000           0.000       -2439.168
G10  25291956.243          16.000       -3686.842         454.924
G12  25330129.716          11.000       -2034.814         127.272
C29  23542244.843          17.000           0.000       -4014.649
G13  24294919.078          13.000      122391.767       -4905.427
G24  20315289.618          20.000       70659.103       -1519.100
C37  25164659.868          15.000           0.000       -2887.215
G29  24385841.333           9.000      196704.012       -4471.717
R18  22673055.672          17.000           0.000         988.063
E09  24362570.843          18.000      118155.184       -2884.237
R01  23162610.160          17.000           0.000       -3512.401
R24  21463748.358          35.000           0.000       -5657.896
C30  26345808.876          29.000           0.000       -4819.861
R17  20224222.563          25.000           0.000       -2263.991
R03  22741472.807          28.000           0.000        -949.800
C39  36142685.839          34.000           0.000       -1856.060
C06  36217141.095          38.000       22589.843       -1510.960
C08  36305851.482          19.000       49171.248       -1096.329
C46  23315875.455          25.000           0.000        -194.217
C09  37163035.466          30.000       15972.299       -1332.758
C13  36634468.985          24.000       47754.269       -1016.150
E05  25390157.160          27.000       44742.603       -1153.704
C16  36397126.893          30.000       32631.950       -1636.535
C35  24235168.942          32.000           0.000       -1437.616
C19  23681450.473          18.000       61179.921       -1299.403
C20  23507076.789          34.000       33792.969       -2598.171
C38  36248621.402          22.000           0.000       -1387.270
C36  25226018.691          28.000      -51042.893        1085.659
E36  23866071.962          35.000       25952.773       -1305.768
E04  27172037.490          13.000       11316.531       -3781.990
J02  37618768.568          23.000       82869.223       -1803.553
C02  37412928.668          36.000       50388.042       -1866.972
> 2023 07 24 08 50 02.000560   0 36
G15  21723435.479          24.000      183230.806       -3822.653
G18  20847734.214          37.000       10906.760        -846.679
G23  22481736.817          21.000       -8106.138         167.997
G05  23615157.966          16.000      173975.137       -3631.349
J03  36092107.854          15.000       92612.511       -1929.575
R02  21415323.182          29.000           0.000       -2441.921
G10  25291868.704          14.000       -4140.253         450.770
G12  25330104.534           9.000       -2166.089         131.734
C29  23543015.909          16.000           0.000       -4014.925
G13  24295850.533          13.000      127294.143       -4898.766
G24  20315578.018          19.000       72177.788       -1518.963
C37  25165217.183          16.000           0.000       -2890.081
G29  24386696.341           9.000      201175.757       -4471.854
R18  22672863.505          16.000           0.000         996.732
E09  24363120.363          17.000      121041.169       -2888.192
R01  23163260.710          17.000           0.000       -3525.629
R24  21464809.923          34.000           0.000       -5660.252
C30  26346729.539          29.000           0.000       -4821.667
R17  20224647.369          23.000           0.000       -2266.697
R03  22741647.287          26.000           0.000        -951.679
C39  36143043.192          35.000           0.000       -1858.399
C06  36217430.994          38.000       24100.267       -1511.464
C08  36306062.236          19.000       50268.567       -1097.440
C46  23315910.531          20.000           0.000        -196.098
C09  37163290.589          29.000       17306.308       -1334.937
C13  36634663.850          24.000       48772.131       -1017.856
E05  25390375.109          27.000       45897.541       -1156.932
C16  36397445.573          33.000       34268.492       -1639.036
C35  24235439.654          32.000           0.000       -1440.487
C19  23681698.701          19.000       62482.692       -1303.603
C20  23507575.344          34.000       36395.163       -2602.426
C38  36248887.617          20.000           0.000       -1388.976
C36  25225808.836          27.000      -52128.619        1084.631
E36  23866318.691          36.000       27258.692       -1307.282
E04  27172754.294          12.000       15102.218       -3790.103
J02  37619111.231          20.000       84672.538       -1803.546
> 2023 07 24 08 50 03.000560   0 36
G15  21724161.876          26.000      187054.003       -3823.840
G18  20847896.701          37.000       11752.843        -844.883
G23  22481705.639          21.000       -8272.610         165.224
G05  23615842.992          16.000      177607.900       -3633.914
J03  36092478.097          19.000       94542.708       -1931.131
R02  21415777.967          31.000           0.000       -2442.924
G10  25291780.864          14.000       -4591.748         452.814
G12  25330081.150          10.000       -2293.781         125.892
C29  23543787.275          15.000           0.000       -4017.134
G13  24296775.992          14.000      132193.679       -4905.442
G24  20315870.016          18.000       73699.996       -1522.833
C37  25165774.197          17.000           0.000       -2891.697
G29  24387545.354          10.000      205647.221       -4471.404
R18  22672673.136          17.000           0.000         993.817
E09  24363670.182          17.000      123928.665       -2887.290
R01  23163918.155          14.000           0.000       -3517.730
R24  21465871.788          35.000           0.000       -5661.275
C30  26347651.700          30.000           0.000       -4823.195
R17  20225068.878          20.000           0.000       -2267.179
R03  22741823.565          24.000           0.000        -952.034
C39  36143404.442          36.000           0.000       -1858.748
C06  36217722.393          39.000       25611.187       -1510.824
C08  36306273.590          19.000       51367.783       -1100.152
C46  23315946.206          18.000           0.000        -195.548
C09  37163548.711          29.000       18641.951       -1335.956
C13  36634853.319          19.000       49791.140       -1021.264
E05  25390594.857          26.000       47054.408       -1156.546
C16  36397757.956          34.000       35905.432       -1637.564
C35  24235716.662          32.000           0.000       -1442.192
C19  23681946.629          20.000       63787.403       -1305.775
C20  23508071.801          33.000       38997.538       -2603.075
C38  36249154.133          22.000           0.000       -1389.987
C36  25225603.478          26.000      -53212.856        1084.060
E36  23866568.418          36.000       28565.299       -1307.737
E04  27173472.297          10.000       18897.837       -3804.501
J02  37619454.793          20.000       86477.100       -1805.943
> 2023 07 24 08 50 04.000560   0 37
G15  21724889.772          27.000      190878.009       -3824.407
G18  20848058.889          38.000       12599.695        -847.713
G23  22481674.161          20.000       -8437.008         163.135
G05  23616533.414          17.000      181242.352       -3634.838
J03  36092845.643          18.000       96474.263       -1932.780
R02  21416236.649          31.000           0.000       -2443.425
G10  25291692.426          13.000       -5045.748         454.930
G12  25330059.565          10.000       -2418.976         121.178
C29  23544558.341          13.000           0.000       -4016.566
G13  24297707.747          14.000      137096.874       -4902.610
G24  20316158.416          17.000       75224.225       -1525.580
C37  25166329.413          17.000           0.000       -2892.135
G29  24388396.464          12.000      210118.482       -4471.214
R18  22672483.967          15.000           0.000         987.760
E09  24364219.702          18.000      126816.555       -2888.895
R01  23164576.199          13.000           0.000       -3520.256
R24  21466934.552          34.000           0.000       -5662.417
C30  26348571.464          32.000           0.000       -4823.190
R17  20225480.193          17.000           0.000       -2272.338
R03  22741998.344          23.000           0.000        -954.320
C39  36143760.895          36.000           0.000       -1859.079
C06  36218009.893          38.000       27122.333       -1511.575
C08  36306483.445          18.000       52468.389       -1099.638
C46  23315985.479          18.000           0.000        -195.574
C09  37163806.232          30.000       19978.018       -1335.850
C13  36635052.381          24.000       50812.384       -1021.721
E05  25390813.106          26.000       48209.377       -1154.279
C16  36398076.636          34.000       37542.748       -1637.940
C35  24235992.472          33.000           0.000       -1441.389
C19  23682194.558          20.000       65093.101       -1304.040
C20  23508568.557          34.000       41600.242       -2602.805
C38  36249420.948          23.000           0.000       -1390.897
C36  25225398.720          24.000      -54297.332        1082.631
E36  23866817.846          37.000       29872.623       -1307.354
E04  27174194.197           9.000       22702.304       -3804.310
J02  37619796.557          22.000       88284.384       -1809.238
C02  37414007.322          36.000       55997.480       -1871.443
> 2023 07 24 08 50 05.000560   0 38
G15  21725616.169          29.000      194702.422       -3824.496
G18  20848221.377          39.000       13446.924        -847.291
G23  22481649.878          19.000       -8599.998         162.643
G05  23617231.631          18.000      184877.183       -3634.901
J03  36093216.186          18.000       98409.027       -1936.015
R02  21416689.636          31.000           0.000       -2442.816
G10  25291606.385          12.000       -5499.653         453.443
G12  25330036.481           9.000       -2539.549         119.617
C29  23545329.707          14.000           0.000       -4016.580
G13  24298632.607          14.000      141994.665       -4893.796
G24  20316447.716          18.000       76750.673       -1528.182
C37  25166885.528          16.000           0.000       -2892.664
G29  24389252.072          13.000      214592.090       -4475.892
R18  22672294.499          14.000           0.000         989.153
E09  24364769.221          18.000      129705.219       -2888.965
R01  23165229.147          14.000           0.000       -3515.438
R24  21467992.220          35.000           0.000       -5662.521
C30  26349490.627          31.000           0.000       -4822.759
R17  20225898.403          20.000           0.000       -2271.614
R03  22742177.619          23.000           0.000        -952.196
C39  36144117.048          38.000           0.000       -1858.861
C06  36218299.193          37.000       28633.688       -1512.421
C08  36306692.700          19.000       53568.425       -1099.199
C46  23316025.352          18.000           0.000        -192.600
C09  37164062.555          28.000       21313.663       -1336.023
C13  36635252.642          20.000       51832.768       -1019.638
E05  25391031.655          26.000       49362.921       -1153.591
C16  36398395.315          37.000       39180.346       -1639.393
C35  24236267.081          32.000           0.000       -1441.339
C19  23682444.285          20.000       66397.031       -1303.704
C20  23509069.210          36.000       44202.859       -2603.194
C38  36249687.464          18.000           0.000       -1391.759
C36  25225192.463          22.000      -55379.962        1082.281
E36  23867065.774          37.000       31180.094       -1307.736
E04  27174915.198           9.000       26510.482       -3813.869
J02  37620142.817          20.000       90091.902       -1806.749
C02  37414365.574          34.000       57869.171       -1871.466
R12  21597339.474          29.000           0.000        -160.593
> 2023 07 24 08 50 06.000560   0 38
G15  21726344.365          28.000      198526.656       -3823.714
G18  20848382.065          40.000       14294.268        -846.867
G23  22481622.597          21.000       -8763.775         164.554
G05  23617925.051          23.000      188512.130       -3635.128
J03  36093583.732          25.000      100346.305       -1938.112
R02  21417144.121          34.000           0.000       -2442.235
G10  25291519.745          13.000       -5952.136         452.557
G12  25330016.395           9.000       -2659.157         119.450
C29  23546101.373          13.000           0.000       -4012.072
G13  24299558.666          15.000      146884.411       -4888.629
G24  20316737.915          19.000       78278.830       -1528.532
C37  25167446.739          17.000           0.000       -2893.578
G29  24390104.082          13.000      219066.400       -4472.772
R18  22672108.028          13.000           0.000         990.699
E09  24365319.041          19.000      132593.744       -2888.363
R01  23165889.890          14.000           0.000       -3511.996
R24  21469057.382          34.000           0.000       -5661.981
C30  26350413.089          30.000           0.000       -4821.927
R17  20226339.098          20.000           0.000       -2271.007
R03  22742351.799          25.000           0.000        -952.607
C39  36144473.202          38.000           0.000       -1859.055
C06  36218588.493          36.000       30145.065       -1511.393
C08  36306902.554          19.000       54667.319       -1098.535
C46  23316062.826          18.000           0.000        -195.945
C09  37164321.875          28.000       22650.076       -1336.459
C13  36635450.505          20.000       52852.408       -1019.958
E05  25391252.302          25.000       50515.943       -1152.973
C16  36398709.498          36.000       40817.824       -1637.347
C35  24236542.291          31.000           0.000       -1440.947
C19  23682691.914          20.000       67700.965       -1305.194
C20  23509568.065          36.000       46805.495       -2602.309
C38  36249953.679          18.000           0.000       -1391.140
C36  25224985.006          21.000      -56461.259        1080.893
E36  23867313.103          36.000       32487.515       -1306.596
E04  27175637.997           9.000       30326.835       -3822.597
J02  37620487.578          19.000       91899.317       -1808.505
C02  37414723.526          34.000       59740.789       -1871.289
R12  21597367.955          28.000           0.000        -160.522
> 2023 07 24 08 50 07.000560   0 38
G15  21727070.162          27.000      202350.400       -3823.996
G18  20848543.953          40.000       15142.006        -848.240
G23  22481586.921          22.000       -8929.430         165.746
G05  23618622.368          23.000      192147.306       -3635.757
J03  36093953.976          29.000      102284.430       -1938.326
R02  21417596.808          31.000           0.000       -2441.126
G10  25291429.208          13.000       -6407.898         458.068
G12  25329995.109           9.000       -2777.977         116.978
C29  23546870.940          14.000           0.000       -4010.077
G13  24300494.618          15.000      151775.900       -4892.798
G24  20317032.311          20.000       79807.808       -1530.000
C37  25168003.754          17.000           0.000       -2891.900
G29  24390946.499          14.000      223536.339       -4467.645
R18  22671920.058          15.000           0.000         988.976
E09  24365868.260          24.000      135481.480       -2887.540
R01  23166547.035          14.000           0.000       -3516.176
R24  21470118.947          34.000           0.000       -5661.419
C30  26351340.946          30.000           0.000       -4821.231
R17  20226768.401          28.000           0.000       -2271.332
R03  22742527.477          25.000           0.000        -952.006
C39  36144828.456          38.000           0.000       -1858.412
C06  36218880.191          40.000       31655.960       -1511.185
C08  36307112.409          20.000       55767.345       -1101.118
C46  23316098.501          23.000           0.000        -199.228
C09  37164577.898          32.000       23986.059       -1335.742
C13  36635648.368          30.000       53871.641       -1018.807
E05  25391477.146          26.000       51669.434       -1154.211
C16  36399023.380          40.000       42455.024       -1637.457
C35  24236816.301          29.000           0.000       -1441.746
C19  23682945.838          21.000       69006.219       -1305.161
C20  23510066.620          39.000       49407.462       -2601.922
C38  36250221.394          29.000           0.000       -1390.295
C36  25224775.751          22.000      -57544.059        1083.115
E36  23867563.130          39.000       33795.162       -1308.475
E04  27176364.394           9.000       34150.912       -3827.803
J02  37620832.939          19.000       93708.586       -1808.438
C02  37415082.377          37.000       61612.095       -1870.936
R12  21597398.534          25.000           0.000        -160.717
> 2023 07 24 08 50 08.000560   0 37
G15  21727801.956          23.000      206173.062       -3821.870
G18  20848701.944          40.000       15988.127        -844.673
G23  22481547.948          22.000       -9095.878         168.287
G05  23619314.289          20.000      195781.754       -3632.994
J03  36094321.821          33.000      104222.628       -1936.674
R02  21418046.796          26.000           0.000       -2439.926
G10  25291340.170          11.000       -6863.093         452.873
G12  25329974.424          11.000       -2895.042         118.989
C29  23547640.807          14.000           0.000       -4008.262
G13  24301420.377          13.000      156671.599       -4896.224
G24  20317326.408          20.000       81337.178       -1528.736
C37  25168559.869          17.000           0.000       -2890.876
G29  24391785.318          15.000      228003.496       -4467.128
G32  25503489.502          17.000           0.000         194.492
R18  22671736.585          16.000           0.000        1002.698
E09  24366417.780          22.000      138367.817       -2885.239
R01  23167204.779          16.000           0.000       -3522.059
R24  21471181.412          37.000           0.000       -5660.148
C30  26352264.307          26.000           0.000       -4820.290
R17  20227191.708          24.000           0.000       -2269.987
R03  22742706.154          27.000           0.000        -949.595
C39  36145185.809          38.000           0.000       -1854.411
C06  36219170.690          41.000       33164.737       -1507.417
C08  36307323.163          20.000       56868.988       -1102.636
C46  23316128.480          24.000           0.000        -198.756
C09  37164834.520          33.000       25320.879       -1332.502
C13  36635844.433          29.000       54890.190       -1017.851
E05  25391700.791          31.000       52823.720       -1153.698
C16  36399336.064          41.000           0.416       -1630.724
C35  24237093.309          27.000           0.000       -1441.785
C19  23683202.760          26.000       70309.276       -1301.424
C20  23510566.973          37.000       52007.788       -2598.305
C38  36250487.610          28.000           0.000       -1389.027
C36  25224567.995          18.000      -58628.017        1084.544
E36  23867809.559          37.000       35100.996       -1305.582
E04  27177091.091           9.000       37983.470       -3834.025
J02  37621178.900          19.000       95517.924       -1811.592
> 2023 07 24 08 50 09.000560   0 37
G15  21728531.651          29.000      209993.859       -3820.208
G18  20848863.532          41.000       16834.286        -846.905
G23  22481512.872          23.000       -9264.594         168.917
G05  23620004.411          27.000      199414.175       -3632.120
J03  36094691.165          30.000      106159.037       -1936.848
R02  21418525.265          24.000           0.000       -2436.015
G10  25291251.431           9.000       -7317.272         454.160
G12  25329955.537          11.000       -3012.470         113.724
C29  23548411.274          13.000           0.000       -4011.144
G13  24302347.035          14.000      161561.382       -4888.099
G24  20317621.403          20.000       82865.522       -1529.124
C37  25169112.986          16.000           0.000       -2885.129
G29  24392642.125          16.000      232470.612       -4467.942
G32  25503378.279          17.000          -0.797         196.185
R18  22671553.112          16.000           0.000         994.191
E09  24366966.700          25.000      141252.336       -2884.183
R01  23167865.822          16.000           0.000       -3522.481
R24  21472247.474          32.000           0.000       -5658.975
C30  26353191.265          21.000           0.000       -4820.221
R17  20227618.313          21.000           0.000       -2270.268
R03  22742887.228          17.000           0.000        -948.798
C39  36145541.063          37.000           0.000       -1855.130
C06  36219459.390          40.000           0.540       -1508.578
C08  36307533.618          20.000       57970.462       -1100.898
C46  23316156.960          27.000           0.000        -196.564
C09  37165091.143          32.000          -0.142       -1333.077
C13  36636039.298          26.000       55907.569       -1017.269
E05  25391917.841          30.000       53976.649       -1152.772
C16  36399648.448          38.000        1634.608       -1635.427
C35  24237374.215          27.000           0.000       -1441.333
C19  23683460.282          26.000       71609.849       -1299.889
C20  23511067.926          39.000           0.393       -2598.875
C38  36250754.725          31.000           0.000       -1387.515
C36  25224358.440          21.000      -59712.768        1085.105
E36  23868059.886          42.000       36406.695       -1306.049
E04  27177817.488           9.000       41817.543       -3839.599
J02  37621517.665          18.000       97332.128       -1814.347
> 2023 07 24 08 50 10.000560   0 36
G15  21729258.048          29.000      213814.277       -3821.121
G18  20849024.521          44.000       17682.940        -849.279
G23  22481483.493          25.000       -9433.288         167.926
G05  23620697.831          29.000      203046.341       -3632.780
J03  36095059.910          25.000      108095.676       -1936.933
R02  21418989.943          20.000           0.000       -2439.215
G10  25291158.495           9.000       -7768.650         448.713
G12  25329934.851          12.000       -3126.951         115.921
C29  23549182.940          12.000           0.000       -4015.986
G13  24303276.092          13.000      166448.714       -4888.982
G24  20317916.099          20.000       84395.143       -1530.626
C37  25169667.602          15.000           0.000       -2890.273
G29  24393497.733          16.000      236939.719       -4469.673
G32  25503328.513           9.000        -195.531         195.013
R18  22671365.742          16.000           0.000        1004.789
E09  24367515.620          25.000      144136.193       -2884.349
R01  23168525.065          17.000           0.000       -3527.069
R24  21473297.647          23.000           0.000       -5660.439
C30  26354125.718          23.000           0.000       -4821.188
R17  20228049.414          16.000           0.000       -2273.220
R03  22743061.707          21.000           0.000        -951.313
C39  36145898.115          36.000           0.000       -1859.577
C06  36219748.690          38.000        1510.672       -1510.909
C08  36307744.372          24.000       59069.928       -1098.620
C46  23316185.141          29.000           0.000        -196.893
C09  37165348.365          36.000        1334.333       -1333.964
C13  36636235.362          23.000       56923.428       -1016.064
E05  25392135.191          28.000       55128.293       -1153.985
C16  36399964.729          36.000        3270.862       -1636.816
C35  24237653.022          24.000           0.000       -1443.587
C19  23683720.501          23.000       72908.188       -1298.715
C20  23511568.880          40.000        2600.847       -2599.421
C38  36251023.639          30.000           0.000       -1388.681
C36  25224147.686          27.000      -60798.722        1085.580
E36  23868310.812          43.000       37714.739       -1307.985
J02  37621857.930          19.000       99143.360       -1808.692
> 2023 07 24 08 50 11.000560   0 36
G15  21729985.044          29.000      217636.733       -3824.232
G18  20849189.407          41.000       18532.668        -852.421
G23  22481452.614          22.000       -9600.098         165.169
G05  23621389.452          26.000      206679.378       -3633.733
J03  36095427.456          33.000      110032.619       -1937.554
R02  21419442.630          25.000           0.000       -2440.023
G10  25291070.057           9.000       -8215.140         445.059
G12  25329917.763          12.000       -3243.827         117.960
C29  23549954.905          14.000           0.000       -4017.594
G13  24304211.145          13.000      171339.529       -4895.484
G24  20318205.999          23.000       85926.400       -1531.351
C37  25170225.515          15.000           0.000       -2889.469
G29  24394344.047          17.000      241409.423       -4470.251
G32  25503293.737          11.000        -389.317         193.207
R18  22671181.369          17.000           0.000         999.680
E09  24368065.140          24.000      147021.519       -2886.071
R01  23169186.407          17.000           0.000       -3530.538
R24  21474359.212          32.000           0.000       -5662.705
C30  26355052.077          24.000           0.000       -4820.476
R17  20228474.520          19.000           0.000       -2274.656
R03  22743235.887          24.000           0.000        -952.599
C39  36146255.168          36.000           0.000       -1861.708
C06  36220040.987          38.000        3021.681       -1513.758
C08  36307954.526          23.000       60169.429       -1099.276
C46  23316216.619          28.000           0.000        -199.146
C09  37165611.283          32.000        2669.836       -1337.896
C13  36636431.726          27.000       57940.889       -1018.902
E05  25392356.138          27.000       56282.969       -1155.297
C16  36400276.513          37.000        4908.165       -1639.785
C35  24237932.129          27.000           0.000       -1444.555
C19  23683974.126          24.000       74209.447       -1303.853
C20  23512065.636          34.000        5201.189       -2601.107
C38  36251290.154          28.000           0.000       -1389.637
C36  25223937.531          24.000      -61883.722        1083.612
E36  23868559.340          35.000       39023.686       -1314.483
J02  37622199.993          19.000      100951.287       -1806.855
> 2023 07 24 08 50 12.000560   0 36
G15  21730712.940          24.000      221461.510       -3826.303
G18  20849347.397          36.000       19386.192        -853.525
G23  22481415.140          23.000       -9764.498         164.316
G05  23622084.071          23.000      210314.777       -3636.510
J03  36095796.200          32.000      111970.992       -1939.355
R02  21419896.216          27.000           0.000       -2442.091
G10  25290981.618           9.000       -8662.736         447.744
G12  25329896.777          13.000       -3362.224         119.386
C29  23550727.171          15.000           0.000       -4019.383
G13  24305143.799          13.000      176234.916       -4898.612
G24  20318499.495          26.000       87458.625       -1532.314
C37  25170781.031          16.000           0.000       -2893.578
G29  24395192.460          17.000      245880.605       -4471.904
G32  25503258.062           9.000        -578.142         187.368
R18  22671001.194          27.000           0.000         986.561
E09  24368614.060          23.000      149909.490       -2889.244
R01  23169851.947          17.000           0.000       -3546.669
R24  21475420.777          37.000           0.000       -5665.484
C30  26355977.836          27.000           0.000       -4819.736
R17  20228899.925          19.000           0.000       -2278.222
R03  22743415.463          24.000           0.000        -955.434
C39  36146609.823          38.000           0.000       -1861.457
C06  36220331.786          36.000        4535.633       -1513.984
C08  36308166.180          25.000       61268.377       -1098.578
C46  23316257.990          25.000           0.000        -201.179
C09  37165867.905          27.000        4008.335       -1338.891
C13  36636628.990          29.000       58960.644       -1021.739
E05  25392577.984          30.000       57440.647       -1159.479
C16  36400593.094          40.000        6548.269       -1638.730
C35  24238211.835          28.000           0.000       -1446.412
C19  23684223.853          27.000       75513.733       -1304.922
C20  23512563.891          33.000        7804.911       -2603.790
C38  36251555.470          26.000           0.000       -1393.347
C36  25223726.478          27.000      -62966.484        1081.998
E36  23868809.067          34.000       40336.201       -1313.716
J02  37622541.756          20.000      102758.309       -1806.583
> 2023 07 24 08 50 13.000560   0 36
G15  21731442.036          23.000      225288.007       -3826.980
G18  20849511.683          37.000       20240.083        -855.339
G23  22481379.765          26.000       -9928.259         163.390
G05  23622772.095          23.000      213952.506       -3638.243
J03  36096154.152          34.000      113909.345       -1934.385
R02  21420351.301          28.000           0.000       -2443.624
G12  25329875.492          13.000       -3481.726         118.949
C29  23551500.036          15.000           0.000       -4020.695
G13  24306072.856          14.000      181134.805       -4899.677
G24  20318789.994          19.000       88992.431       -1534.667
C37  25171337.146          15.000           0.000       -2897.285
G29  24396043.570          17.000      250353.155       -4472.761
G32  25503226.284          12.000        -765.466         186.615
R18  22670820.419          26.000           0.000         993.974
E09  24369163.279          25.000      152796.932       -2887.178
R01  23170515.387          16.000           0.000       -3559.441
R24  21476480.843          36.000           0.000       -5666.546
C30  26356900.298          26.000           0.000       -4822.540
R17  20229321.434          24.000           0.000       -2280.106
R03  22743589.042          22.000           0.000        -955.389
C39  36146964.177          39.000           0.000       -1862.825
C06  36220620.486          40.000        6049.655       -1515.400
C08  36308378.433          22.000       62364.233       -1096.422
C46  23316297.263          23.000           0.000        -203.226
C09  37166122.129          25.000        5346.354       -1337.689
C13  36636827.452          21.000       59982.892       -1023.715
E05  25392799.531          29.000       58600.208       -1159.057
C16  36400910.274          40.000        8188.403       -1642.440
C35  24238489.143          23.000           0.000       -1449.549
C19  23684475.978          21.000       76820.036       -1308.666
C20  23513063.645          29.000       10406.564       -2595.519
C38  36251824.684          27.000           0.000       -1395.543
C36  25223511.227          34.000      -64047.798        1080.792
E36  23869056.396          32.000       41648.091       -1311.712
J02  37622881.721          24.000      104564.823       -1806.613
C02  37417237.286          33.000       72828.787       -1870.542
> 2023 07 24 08 50 14.000560   0 36
G15  21732170.232          24.000      229115.250       -3827.407
G18  20849671.773          41.000       21095.044        -857.208
G23  22481346.488          26.000      -10091.107         163.206
G05  23623461.018          20.000      217590.649       -3638.262
J03  36096521.398          28.000      115844.826       -1937.343
R02  21420797.992          31.000           0.000       -2444.576
G10  25290827.225          20.000           0.000         457.483
G12  25329854.507          14.000       -3597.798         112.412
C29  23552273.201          15.000           0.000       -4021.124
G13  24307006.709          13.000      186033.987       -4899.315
G24  20319081.093          24.000       90527.727       -1536.167
C37  25171893.860          15.000           0.000       -2899.558
G29  24396895.880          17.000      254827.561       -4475.433
G32  25503191.508          14.000        -951.132         184.973
R18  22670641.443          25.000           0.000         984.929
E09  24369712.799          20.000      155686.927       -2894.210
R01  23171180.027          15.000           0.000       -3559.022
R24  21477543.607          36.000           0.000       -5667.285
C30  26357822.759          27.000           0.000       -4823.743
R17  20229741.743          22.000           0.000       -2281.015
R03  22743758.425          23.000           0.000        -957.965
C39  36147319.132          34.000           0.000       -1861.964
C06  36220912.484          38.000        7563.432       -1516.551
C08  36308591.285          25.000       63461.780       -1099.623
C46  23316336.536          22.000           0.000        -200.673
C09  37166378.152          29.000        6684.272       -1338.045
C13  36637023.816          21.000       61006.815       -1024.352
E05  25393020.178          27.000       59759.022       -1158.565
C16  36401221.459          39.000        9828.533       -1641.775
C35  24238772.147          25.000           0.000       -1449.948
C19  23684732.001          19.000       78129.173       -1310.246
C20  23513562.799          25.000       13009.292       -2606.106
C38  36252092.399          26.000           0.000       -1395.253
C36  25223298.074          37.000      -65128.530        1080.914
E36  23869307.622          37.000       42960.351       -1311.911
J02  37623225.583          24.000      106371.773       -1806.934
> 2023 07 24 08 50 15.000560   0 36
G15  21732899.327          23.000      232942.245       -3826.775
G18  20849836.059          30.000       21952.409        -856.631
G23  22481316.808          22.000      -10253.829         162.652
G05  23624150.241          21.000      221229.342       -3639.127
J03  36096894.040          33.000      117783.422       -1940.088
R02  21421250.079          24.000           0.000       -2444.404
G10  25290838.917          14.000           0.139         447.380
G12  25329837.119          13.000       -3706.705         106.421
C29  23553046.365          15.000           0.000       -4022.505
G13  24307939.664          13.000      190933.196       -4898.613
G24  20319376.688          14.000       92064.672       -1537.724
C37  25172449.976          15.000           0.000       -2899.064
G29  24397741.295          19.000      259302.097       -4473.992
G32  25503157.931          13.000       -1135.938         186.666
R18  22670454.972          22.000           0.000         983.556
E09  24370263.817          21.000      158579.784       -2894.421
R01  23171843.168          14.000           0.000       -3548.786
R24  21478607.271          34.000           0.000       -5667.635
C30  26358739.524          23.000           0.000       -4824.497
R17  20230162.351          21.000           0.000       -2280.013
R03  22743941.298          24.000           0.000        -957.281
C39  36147681.581          36.000           0.000       -1861.390
C06  36221197.287          31.000        9076.575       -1513.811
C08  36308802.939          28.000       64561.513       -1100.364
C46  23316374.610          21.000           0.000        -200.875
C09  37166634.175          30.000        8022.787       -1338.471
C13  36637222.878          21.000       62030.203       -1023.105
E05  25393242.324          28.000       60919.474       -1161.134
C16  36401532.943          33.000       11468.360       -1639.805
C35  24239046.457          32.000           0.000       -1448.879
C19  23684980.229          27.000       79438.084       -1307.901
C20  23514061.954          31.000       15614.599       -2605.104
C38  36252360.413          27.000           0.000       -1393.723
C36  25223092.416          31.000      -66208.960        1081.622
E36  23869562.746          30.000       44272.945       -1313.263
J02  37623569.745          20.000      108179.401       -1808.116
> 2023 07 24 08 50 16.000560   0 36
G15  21733626.923          25.000      236768.838       -3826.683
G18  20849999.146          27.000       22808.395        -855.433
G23  22481286.829          28.000      -10416.572         162.945
G05  23624839.764          20.000      224868.349       -3639.202
J03  36097263.385          36.000      119724.200       -1941.471
R02  21421706.063          29.000           0.000       -2444.292
G10  25290736.987           9.000        -447.358         448.819
G12  25329820.030          13.000       -3811.940         105.026
C29  23553818.331          13.000           0.000       -4016.688
G13  24308871.718          14.000      195831.810       -4898.503
G24  20319669.585          14.000       93604.318       -1539.992
C37  25173004.292          15.000           0.000       -2898.149
G29  24398588.209          20.000      263775.192       -4472.992
G32  25503126.453          13.000       -1323.476         185.177
R18  22670271.499          17.000           0.000         988.347
E09  24370813.337          21.000      161470.401       -2889.965
R01  23172505.410          15.000           0.000       -3548.364
R24  21479672.134          36.000           0.000       -5667.470
C30  26359659.587          25.000           0.000       -4824.019
R17  20230581.461          25.000           0.000       -2280.796
R03  22744121.474          19.000           0.000        -955.464
C39  36148039.833          36.000           0.000       -1862.422
C06  36221488.985          35.000       10590.220       -1513.208
C08  36309014.292          28.000       65661.969       -1100.212
C46  23316420.178          22.000           0.000        -203.035
C09  37166885.101          28.000        9361.372       -1338.676
C13  36637418.943          27.000       63052.932       -1022.606
E05  25393463.871          24.000       62078.700       -1158.024
C16  36401845.926          33.000       13108.797       -1640.988
C35  24239319.568          32.000           0.000       -1449.581
C19  23685225.759          30.000       80745.300       -1306.844
C20  23514561.108          36.000       18219.569       -2604.841
C38  36252628.128          32.000           0.000       -1393.535
C36  25222887.658          23.000      -67290.795        1082.073
E36  23869812.772          31.000       45586.705       -1314.961
J02  37623903.713          18.000      109985.026       -1805.457
> 2023 07 24 08 50 17.000560   0 37
G15  21734353.920          28.000      240595.124       -3826.158
G18  20850161.034          30.000       23663.617        -855.237
G23  22481255.351          24.000      -10579.586         163.448
G05  23625520.293          15.000      228507.372       -3639.638
J03  36097638.425          34.000      121664.453       -1939.357
R02  21422168.942          31.000           0.000       -2443.289
G10  25290642.552          12.000        -896.555         448.858
G12  25329802.942          11.000       -3917.539         104.816
C29  23554589.397          12.000           0.000       -4020.186
G13  24309801.974          13.000      200730.565       -4898.497
G24  20319960.384          16.000       95143.189       -1537.424
C37  25173560.407          16.000           0.000       -2899.083
G29  24399430.326          21.000      268247.849       -4472.251
G32  25503088.979          13.000       -1510.418         188.441
R18  22670089.525          20.000           0.000         989.589
E09  24371363.156          20.000      164358.064       -2892.118
R01  23173168.850          13.000           0.000       -3545.896
R24  21480739.695          36.000           0.000       -5667.205
C30  26360582.948          27.000           0.000       -4821.689
R17  20231010.165          23.000           0.000       -2282.328
R03  22744304.947          19.000           0.000        -959.319
C39  36148395.686          33.000           0.000       -1862.138
C06  36221785.180          33.000       12103.798       -1513.683
C08  36309225.646          28.000       66762.474       -1100.647
C46  23316463.948          26.000           0.000        -203.131
C09  37167139.325          29.000       10699.659       -1339.009
C13  36637615.007          25.000       64075.527       -1022.758
E05  25393688.116          28.000       63236.411       -1157.959
C16  36402164.306          33.000       14748.820       -1640.157
C35  24239587.283          31.000           0.000       -1447.222
C19  23685471.889          19.000       82052.071       -1307.944
C20  23515064.759          36.000       20823.253       -2602.713
C38  36252896.742          32.000           0.000       -1392.681
C36  25222687.697          22.000      -68373.285        1082.779
E36  23870062.799          30.000       46902.018       -1315.112
J02  37624226.590          21.000      111789.203       -1803.529
C02  37418673.891          28.000       80315.125       -1859.495
> 2023 07 24 08 50 18.000560   0 37
G15  21735082.416          29.000      244421.064       -3825.900
G18  20850322.622          32.000       24519.151        -856.000
G23  22481223.273          27.000      -10743.316         163.726
G05  23626211.614          25.000      232146.819       -3639.473
J03  36098008.369          37.000          -0.033       -1940.338
R02  21422630.023          33.000           0.000       -2442.723
G10  25290554.414          12.000       -1347.841         454.499
G12  25329779.858           9.000       -4024.786         108.725
C29  23555361.063          13.000           0.000       -4020.151
G13  24310734.029          10.000      205628.543       -4897.668
G24  20320251.483          16.000       96680.591       -1537.533
C37  25174116.522          17.000           0.000       -2899.739
G29  24400261.650          21.000      272719.626       -4471.501
G32  25503055.402          13.000       -1698.567         186.302
R18  22669904.253          20.000           0.000         994.277
E09  24371915.374          20.000      167250.767       -2893.064
R01  23173836.188          15.000           0.000       -3531.005
R24  21481800.061          37.000           0.000       -5667.041
C30  26361511.705          25.000           0.000       -4821.279
R17  20231440.666          25.000           0.000       -2282.984
R03  22744500.112          19.000           0.000        -956.567
C39  36148750.940          30.000           0.000       -1861.087
C06  36222077.478          36.000       13617.639       -1514.988
C08  36309436.400          28.000       67863.236       -1100.590
C46  23316509.816          26.000           0.000        -204.909
C09  37167387.853          22.000       12037.170       -1336.596
C13  36637813.170          28.000       65096.792       -1021.132
E05  25393911.761          30.000       64395.088       -1159.454
C16  36402476.090          32.000       16388.954       -1640.079
C35  24239862.492          32.000           0.000       -1449.075
C19  23685722.216          22.000       83359.523       -1306.808
C20  23515563.614          37.000           0.190       -2602.983
C38  36253162.058          31.000           0.000       -1392.885
C36  25222481.140          22.000      -69455.680        1082.038
E36  23870311.327          32.000       48217.105       -1315.332
J02  37624553.963          25.000      113592.177       -1803.141
C02  37419032.743          26.000       82180.185       -1866.900
> 2023 07 24 08 50 19.000560   0 37
G15  21735817.507          26.000      248247.599       -3827.279
G18  20850486.608          33.000       25375.474        -856.934
G23  22481194.793          25.000      -10907.000         163.552
G05  23626903.235          22.000      235786.818       -3642.341
J03  36098384.009          34.000        1939.833       -1940.790
R02  21423086.607          30.000           0.000       -2442.465
G10  25290461.178          14.000       -1803.931         457.317
G12  25329762.770          10.000       -4135.400         111.500
C29  23556131.829          12.000           0.000       -4020.122
G13  24311663.086          11.000      210525.421       -4897.560
G24  20320541.982          18.000       98216.234       -1534.764
C37  25174671.737          17.000           0.000       -2901.453
G29  24401095.973          22.000      277191.915       -4473.506
G32  25503017.029          11.000       -1883.820         182.032
R18  22669717.183          19.000           0.000         994.377
E09  24372463.994          20.000      170142.535       -2889.718
R01  23174498.430          14.000           0.000       -3528.707
R24  21482857.129          37.000           0.000       -5667.170
C30  26362438.364          30.000           0.000       -4822.420
R17  20231863.374          23.000           0.000       -2283.359
R03  22744680.587          24.000           0.000        -952.702
C39  36149110.092          38.000           0.000       -1861.622
C06  36222364.979          38.000           0.401       -1514.702
C08  36309647.754          28.000       68963.478       -1099.714
C46  23316548.489          23.000           0.000        -203.421
C09  37167644.175          29.000       13374.703       -1337.960
C13  36638008.035          25.000       66118.067       -1021.604
E05  25394133.008          28.000       65554.771       -1159.283
C16  36402797.168          38.000       18029.071       -1640.255
C35  24240143.398          32.000           0.000       -1449.219
C19  23685968.345          30.000       84665.400       -1306.242
C20  23516065.167          34.000        2603.243       -2603.370
C38  36253428.574          30.000           0.000       -1392.754
C36  25222271.885          25.000      -70537.619        1081.799
E36  23870560.755          31.000       49532.369       -1314.641
J02  37624881.337          21.000      115396.138       -1805.293
C02  37419392.793          34.000       84047.800       -1867.807
> 2023 07 24 08 50 20.000560   0 37
G15  21736551.099          20.000      252075.323       -3829.842
G18  20850651.494          37.000          -0.054        -858.292
G23  22481163.914          25.000      -11070.746         163.926
G05  23627594.257          26.000      239428.693       -3641.939
J03  36098749.756          36.000        3879.892       -1940.109
R02  21423543.791          32.000           0.000       -2442.380
G10  25290369.741          13.000       -2261.621         454.904
G12  25329743.883          10.000       -4244.352         108.691
C29  23556902.596          12.000           0.000       -4019.024
G13  24312591.543          11.000      215421.771       -4893.599
G24  20320832.480          20.000       99751.623       -1536.861
C37  25175228.452          16.000           0.000       -2903.042
G29  24401934.792          21.000      281664.078       -4470.005
G32  25502982.253           9.000       -2065.943         179.456
R18  22669529.812          19.000           0.000         986.808
E09  24373013.814          17.000      173032.579       -2890.314
R01  23175158.573          14.000           0.000       -3524.642
R24  21483885.417          38.000           0.000       -5667.141
C30  26363367.121          27.000           0.000       -4821.647
R17  20232285.781          27.000           0.000       -2284.012
R03  22744866.758          25.000           0.000        -951.600
C39  36149468.044          36.000           0.000       -1861.127
C06  36222657.576          38.000        1514.484       -1513.962
C08  36309858.508          27.000       70062.114       -1098.966
C46  23316588.662          26.000           0.000        -203.842
C09  37167899.898          30.000       14712.982       -1337.998
C13  36638204.099          27.000       67139.225       -1021.456
E05  25394353.955          29.000       66714.071       -1159.297
C16  36403116.447          38.000       19669.312       -1640.477
C35  24240420.406          30.000           0.000       -1449.644
C19  23686217.173          30.000       85971.446       -1305.223
C20  23516567.919          34.000        5206.303       -2602.442
C38  36253694.789          30.000           0.000       -1392.019
C36  25222062.929          27.000      -71619.889        1082.222
E36  23870809.283          34.000       50847.503       -1314.957
J02  37625210.809          21.000      117203.098       -1808.067
C02  37419753.144          36.000       85916.164       -1868.394
> 2023 07 24 08 50 21.000560   0 38
G15  21737282.892          17.000      255907.318       -3835.792
G18  20850818.179          38.000         858.161        -859.456
G23  22481132.436          24.000      -11234.813         164.381
G05  23628286.178          25.000      243069.794       -3640.743
J03  36099115.203          37.000        5819.904       -1939.615
R02  21424002.173          31.000           0.000       -2442.218
G10  25290283.401          14.000       -2716.639         452.348
G12  25329720.499          11.000       -4353.837         108.366
C29  23557673.962          12.000           0.000       -4019.783
G13  24313515.803          12.000      220314.061       -4892.305
G24  20321122.380          20.000      101288.397       -1537.530
C37  25175787.565          16.000           0.000       -2902.356
G29  24402774.511          20.000      286133.810       -4468.542
G32  25502948.376           9.000       -2242.482         171.792
R18  22669346.340          24.000           0.000         986.476
E09  24373563.933          17.000      175924.354       -2893.953
R01  23175817.217          13.000           0.000       -3527.166
R24  21484928.995          40.000           0.000       -5668.072
C30  26364297.077          22.000           0.000       -4820.658
R17  20232710.887          27.000           0.000       -2284.629
R03  22745039.138          18.000           0.000        -948.577
C39  36149824.797          31.000           0.000       -1862.290
C06  36222952.872          40.000        3028.814       -1514.126
C08  36310070.461          28.000       71161.064       -1098.985
C46  23316636.928          27.000           0.000        -204.032
C09  37168154.722          27.000       16051.236       -1338.417
C13  36638398.964          27.000       68160.687       -1022.040
E05  25394573.403          30.000       67873.386       -1159.364
C16  36403432.128          39.000       21309.806       -1640.002
C35  24240695.316          27.000           0.000       -1450.182
C19  23686470.498          29.000       87276.309       -1303.967
C20  23517069.172          35.000        7809.291       -2601.815
C38  36253960.705          33.000           0.000       -1392.066
C36  25221853.974          26.000      -72702.425        1081.539
E36  23871060.509          35.000       52162.850       -1315.969
J02  37625549.574          29.000      119010.486       -1807.150
C02  37420112.895          31.000       87785.334       -1869.247
R12  21597826.937          28.000           0.000        -170.903
> 2023 07 24 08 50 22.000560   0 38
G15  21738011.688          16.000      259743.232       -3834.490
G18  20850983.365          39.000        1716.890        -858.798
G23  22481101.857          24.000      -11398.380         163.617
G05  23628978.998          27.000      246710.433       -3640.042
J03  36099484.847          37.000        7760.058       -1940.212
R02  21424458.158          33.000           0.000       -2442.164
G10  25290194.962          12.000       -3168.617         448.671
G12  25329702.812          11.000       -4465.633         112.744
C29  23558446.227          12.000           0.000       -4020.032
G13  24314446.359          12.000      225207.082       -4895.367
G24  20321412.879          20.000      102824.932       -1536.046
C37  25176342.781          15.000           0.000       -2900.935
G29  24403621.724          19.000      290603.052       -4469.528
G32  25502913.001          11.000       -2414.896         173.646
R18  22669162.867          24.000           0.000         986.497
E09  24374115.251          18.000      178816.332       -2890.664
R01  23176478.259          14.000           0.000       -3509.237
R24  21485989.061          40.000           0.000       -5669.109
C30  26365230.031          21.000           0.000       -4821.998
R17  20233138.991          26.000           0.000       -2285.880
R03  22745200.127          17.000           0.000        -950.139
C39  36150183.649          33.000           0.000       -1861.538
C06  36223243.670          40.000        4543.205       -1514.733
C08  36310283.614          28.000       72260.463       -1100.443
C46  23316681.297          27.000           0.000        -205.704
C09  37168409.845          27.000       17389.831       -1339.254
C13  36638595.328          26.000       69182.868       -1022.417
E05  25394793.750          31.000       69032.094       -1159.452
C16  36403747.510          40.000       22950.352       -1640.448
C35  24240972.324          26.000           0.000       -1451.190
C19  23686722.623          28.000       88580.449       -1304.721
C20  23517568.926          34.000       10412.258       -2601.983
C38  36254229.319          32.000           0.000       -1392.364
C36  25221645.618          26.000      -73784.154        1080.759
E36  23871312.334          37.000       53479.160       -1316.189
J02  37625885.342          28.000      120816.122       -1805.986
C02  37420472.046          31.000       89655.477       -1870.746
R12  21597862.013          29.000           0.000        -171.084
> 2023 07 24 08 50 23.000560   0 38
G15  21738739.284          17.000      263573.879       -3827.348
G18  20851147.051          39.000        2576.370        -859.994
G23  22481070.679          20.000      -11561.341         162.452
G05  23629673.018          28.000      250349.613       -3638.011
J03  36099852.392          38.000        9700.405       -1940.480
R02  21424913.842          33.000           0.000       -2442.122
G10  25290106.524          12.000       -3614.357         441.342
G12  25329685.124          11.000       -4583.932         121.161
C29  23559217.893          10.000           0.000       -4019.187
G13  24315372.118          13.000      230100.367       -4889.213
G24  20321705.176          20.000      104360.942       -1535.749
C37  25176897.097          14.000           0.000       -2900.808
G29  24404470.437          18.000      295074.018       -4471.312
G32  25502879.724           9.000       -2589.467         175.777
R18  22668977.895          25.000           0.000         988.485
E09  24374666.270          19.000      181706.925       -2890.996
R01  23177139.602          12.000           0.000       -3508.086
R24  21487050.026          41.000           0.000       -5668.725
C30  26366161.486          23.000           0.000       -4818.712
R17  20233563.797          28.000           0.000       -2286.898
R03  22745362.914          17.000           0.000        -953.290
C39  36150541.601          29.000           0.000       -1862.291
C06  36223532.370          39.000        6057.846       -1515.008
C08  36310495.267          31.000       73360.519       -1100.221
C46  23316726.266          27.000           0.000        -204.007
C09  37168665.868          26.000       18728.691       -1338.213
C13  36638791.093          30.000       70205.137       -1022.580
E05  25395014.997          31.000       70191.029       -1159.611
C16  36404061.093          40.000       24591.189       -1640.887
C35  24241252.030          24.000           0.000       -1450.228
C19  23686975.348          29.000       89885.505       -1305.318
C20  23518066.581          35.000       13015.290       -2604.116
C38  36254497.034          33.000           0.000       -1392.444
C36  25221439.661          25.000      -74865.341        1081.387
E36  23871562.961          37.000           0.270       -1316.590
J02  37626227.405          28.000      122622.396       -1806.428
C02  37420831.797          31.000       91526.796       -1871.470
R12  21597897.688          29.000           0.000        -171.820
> 2023 07 24 08 50 24.000560   0 38
G15  21739462.683          19.000      267399.239       -3824.564
G18  20851310.138          39.000        3436.455        -860.748
G23  22481040.999          23.000      -11723.541         162.032
G05  23630366.738          29.000      253988.151       -3639.385
J03  36100225.334          36.000       11640.893       -1940.247
R02  21425375.523          30.000           0.000       -2442.206
G10  25290021.383           9.000       -4051.752         432.150
G12  25329668.935           9.000       -4702.385         118.289
C29  23559990.458          11.000           0.000       -4023.704
G13  24316301.475          14.000      234989.633       -4888.638
G24  20321999.572          19.000      105897.061       -1536.275
C37  25177453.212          15.000           0.000       -2901.251
G29  24405322.147          17.000      299543.011       -4467.963
G32  25502846.447           9.000       -2763.096         170.111
R18  22668791.424          24.000           0.000         989.079
E09  24375217.888          19.000      184599.254       -2893.070
R01  23177800.044          14.000           0.000       -3520.256
R24  21488131.078          38.000           0.000       -5669.021
C30  26367091.143          16.000           0.000       -4812.238
R17  20233988.303          28.000           0.000       -2287.581
R03  22745531.997          18.000           0.000        -951.746
C39  36150897.155          24.000           0.000       -1862.381
C06  36223825.268          39.000        7572.560       -1515.240
C08  36310706.321          31.000       74460.611       -1100.033
C46  23316769.137          27.000           0.000        -204.114
C09  37168924.889          28.000       20067.004       -1338.773
C13  36638986.258          28.000       71226.630       -1021.275
E05  25395234.745          30.000       71351.242       -1161.200
C16  36404375.875          40.000       26232.075       -1640.945
C35  24241527.839          23.000           0.000       -1450.642
C19  23687228.373          30.000       91190.655       -1305.493
C20  23518567.235          34.000       15618.316       -2603.051
C38  36254763.849          33.000           0.000       -1394.301
C36  25221232.804          27.000      -75946.875        1081.622
E36  23871813.288          38.000        1317.255       -1317.120
J02  37626568.569          30.000      124427.802       -1805.858
C02  37421193.347          32.000       93398.867       -1872.195
R12  21597931.864          32.000           0.000        -172.522
> 2023 07 24 08 50 25.000560   0 38
G15  21740187.581          26.000      271223.317       -3824.054
G18  20851472.926          42.000        4297.288        -861.505
G23  22481009.221          24.000      -11885.580         161.661
G05  23631059.558          29.000      257627.897       -3640.091
J03  36100597.676          34.000       13581.567       -1939.099
R02  21425847.096          28.000           0.000       -2442.207
G10  25289938.040           9.000       -4481.620         431.036
G12  25329647.650          10.000       -4822.399         121.590
C29  23560763.923          13.000           0.000       -4023.418
G13  24317230.532          15.000      239879.187       -4891.333
G24  20322293.669          18.000      107434.097       -1537.865
C37  25178009.926          16.000           0.000       -2901.733
G29  24406170.859          17.000      304013.030       -4469.136
G32  25502814.969          11.000       -2929.961         162.870
R18  22668602.854          22.000           0.000         987.334
E09  24375770.106          20.000      187496.852       -2901.977
R01  23178455.690          15.000           0.000       -3521.429
R24  21489204.934          36.000           0.000       -5669.572
C30  26368016.902          19.000           0.000       -4812.829
R17  20234411.310          27.000           0.000       -2287.474
R03  22745702.879          19.000           0.000        -952.120
C39  36151247.612          24.000           0.000       -1864.520
C06  36224117.265          39.000        9087.567       -1515.123
C08  36310917.375          30.000       75560.728       -1100.113
C46  23316809.908          22.000           0.000        -205.906
C09  37169185.708          31.000       21406.293       -1339.703
C13  36639182.322          28.000       72247.780       -1021.608
E05  25395454.493          28.000       72511.259       -1161.012
C16  36404690.957          39.000       27873.260       -1641.445
C35  24241803.948          27.000           0.000       -1451.195
C19  23687481.698          32.000       92495.846       -1304.996
C20  23519068.488          35.000       18221.409       -2602.718
C38  36255032.463          33.000           0.000       -1394.373
C36  25221025.947          26.000      -77028.892        1082.649
E36  23872063.314          40.000        2634.828       -1318.302
J02  37626911.531          30.000      126233.605       -1806.836
C02  37421554.597          34.000       95271.638       -1872.798
R12  21597966.940          33.000           0.000        -173.393
> 2023 07 24 08 50 26.000560   0 38
G15  21740913.079          28.000      275047.903       -3825.198
G18  20851636.313          42.000        5158.762        -861.600
G23  22480977.443          24.000      -12047.427         162.705
G05  23631753.877          27.000      261268.956       -3642.468
J03  36100968.819          35.000       15522.297       -1941.074
R02  21426315.672          29.000           0.000       -2442.983
G10  25289851.100           9.000       -4913.637         433.672
G12  25329626.664          10.000       -4942.732         121.187
C29  23561537.687          13.000           0.000       -4025.065
G13  24318159.588          16.000      244771.474       -4892.401
G24  20322587.166          17.000      108973.827       -1540.802
C37  25178569.039          16.000           0.000       -2903.271
G29  24407019.272          17.000      308481.465       -4468.064
G32  25502784.090          11.000       -3091.148         160.519
R18  22668416.983          20.000           0.000         986.632
E09  24376321.124          20.000      190398.806       -2898.179
R01  23179117.332          17.000           0.000       -3524.688
R24  21490264.401          33.000           0.000       -5669.681
C30  26368942.361          24.000           0.000       -4815.868
R17  20234830.120          27.000           0.000       -2289.054
R03  22745875.859          24.000           0.000        -955.016
C39  36151601.967          25.000           0.000       -1864.074
C06  36224406.565          39.000       10602.850       -1515.900
C08  36311129.628          30.000       76660.970       -1099.992
C46  23316852.479          18.000           0.000        -209.057
C09  37169447.427          31.000       22746.133       -1340.079
C13  36639376.288          27.000       73269.104       -1021.334
E05  25395673.341          26.000       73672.750       -1161.864
C16  36405006.339          38.000       29514.742       -1641.720
C35  24242079.458          29.000           0.000       -1453.506
C19  23687735.022          31.000       93801.415       -1305.698
C20  23519567.043          35.000       20824.356       -2603.742
C38  36255300.178          33.000           0.000       -1392.065
C36  25220820.289          26.000      -78111.472        1082.273
E36  23872312.142          39.000        3953.024       -1317.602
J02  37627254.194          30.000      128041.100       -1807.510
C02  37421914.947          35.000       97145.054       -1873.575
R12  21598003.215          32.000           0.000        -174.371
> 2023 07 24 08 50 27.000560   0 37
G15  21741638.577          23.000      278873.491       -3825.528
G18  20851804.196          38.000        6020.975        -862.771
G23  22480942.967          27.000      -12210.338         163.195
G05  23632448.496          24.000      264910.391       -3641.381
J03  36101333.667          38.000       17463.216       -1941.608
R02  21426769.258          30.000           0.000       -2442.695
G12  25329606.278          11.000       -5058.675         113.750
C29  23562310.852          13.000           0.000       -4021.138
G13  24319088.046          17.000      249663.005       -4891.890
G24  20322883.361          17.000      110515.882       -1542.790
C37  25179125.454          16.000           0.000       -2903.793
G29  24407870.683          18.000      312950.163       -4469.439
G32  25502753.211           9.000       -3249.325         157.061
R18  22668237.707          23.000           0.000         989.815
E09  24376870.644          20.000      193294.061       -2892.307
R01  23179777.176          17.000           0.000       -3513.115
R24  21491320.270          36.000           0.000       -5670.019
C30  26369868.420          30.000           0.000       -4820.447
R17  20235260.622          25.000           0.000       -2290.344
R03  22746049.739          21.000           0.000        -956.537
C39  36151963.816          32.000           0.000       -1862.691
C06  36224694.666          39.000       12118.279       -1515.307
C08  36311341.581          30.000       77761.606       -1100.582
C46  23316884.557          25.000           0.000        -208.406
C09  37169707.347          28.000       24085.337       -1339.030
C13  36639569.954          29.000       74290.792       -1022.398
E05  25395894.888          29.000       74834.218       -1161.717
C16  36405320.521          40.000       31156.322       -1642.157
C35  24242358.864          27.000           0.000       -1455.138
C19  23687985.349          32.000       95107.738       -1306.370
C20  23520062.899          33.000       23427.423       -2603.751
C38  36255567.893          32.000           0.000       -1394.592
C36  25220615.531          25.000      -79192.480        1079.447
E36  23872561.270          37.000        5271.626       -1319.190
J02  37627597.157          30.000      129847.982       -1806.492
C02  37422276.797          34.000       99019.015       -1873.894
R12  21598038.291          30.000           0.000        -174.841
> 2023 07 24 08 50 28.000560   0 37
G15  21742359.578          23.000      282698.923       -3825.930
G18  20851965.784          38.000        6883.930        -863.564
G23  22480910.290          25.000      -12373.731         163.686
G05  23633144.914          25.000      268551.410       -3641.074
J03  36101703.611          36.000       19404.439       -1940.733
R02  21427222.544          32.000           0.000       -2442.346
G12  25329585.293          13.000       -5171.890         110.462
C29  23563083.117          14.000           0.000       -4020.980
G13  24320016.203          17.000      254553.611       -4889.773
G24  20323179.855          17.000      112059.209       -1545.443
C37  25179681.569          17.000           0.000       -2904.321
G29  24408722.393          18.000      317419.646       -4469.644
G32  25502722.633           9.000       -3407.616         158.536
R18  22668055.733          25.000           0.000         983.040
E09  24377418.364          20.000      196183.521       -2888.290
R01  23180429.824          18.000           0.000       -3510.075
R24  21492378.837          38.000           0.000       -5670.772
C30  26370792.680          28.000           0.000       -4820.611
R17  20235681.531          25.000           0.000       -2291.170
R03  22746226.616          11.000           0.000        -957.695
C39  36152327.464          34.000           0.000       -1862.173
C06  36224983.666          39.000       13633.999       -1516.579
C08  36311553.235          30.000       78861.802       -1100.261
C46  23316915.435          24.000           0.000        -209.169
C09  37169964.269          27.000       25424.653       -1340.009
C13  36639761.221          27.000       75312.971       -1023.012
E05  25396119.133          30.000       75995.132       -1160.828
C16  36405634.404          40.000       32798.223       -1642.402
C35  24242641.868          25.000           0.000       -1456.482
C19  23688236.875          31.000       96413.738       -1305.638
C20  23520561.454          33.000       26030.819       -2602.576
C38  36255837.706          31.000           0.000       -1393.270
C36  25220412.272          21.000      -80272.923        1080.026
E36  23872813.995          39.000        6590.774       -1319.776
J02  37627940.719          26.000      131653.904       -1805.499
C02  37422637.747          33.000      100893.105       -1873.551
R12  21598073.666          28.000           0.000        -176.353
> 2023 07 24 08 50 29.000560   0 37
G15  21743083.277          22.000      286525.332       -3826.906
G18  20852124.974          40.000        7747.634        -864.480
G23  22480880.910          18.000      -12535.373         161.107
G05  23633840.733          25.000      272191.657       -3640.076
J03  36102073.255          33.000       21345.799       -1941.280
R02  21427681.826          34.000           0.000       -2442.510
G12  25329568.205          13.000       -5282.011         107.006
C29  23563855.382          15.000           0.000       -4018.942
G13  24320944.361          17.000      259442.857       -4888.350
G24  20323477.249          17.000      113605.534       -1547.472
C37  25180239.783          19.000           0.000       -2904.660
G29  24409577.401          20.000      321890.347       -4470.670
G32  25502694.752           9.000       -3562.885         152.451
R18  22667870.761          24.000           0.000         980.834
E09  24377966.085          20.000      199071.216       -2889.405
R01  23181087.868          18.000           0.000       -3505.720
R24  21493435.606          40.000           0.000       -5671.713
C30  26371713.942          28.000           0.000       -4822.031
R17  20236113.532          24.000           0.000       -2292.432
R03  22746403.194          18.000           0.000        -956.687
C39  36152688.115          33.000           0.000       -1864.113
C06  36225273.565          39.000       15149.959       -1516.608
C08  36311764.588          29.000       79962.670       -1101.318
C46  23316941.517          27.000           0.000        -208.387
C09  37170221.191          30.000       26764.700       -1340.400
C13  36639956.386          23.000       76336.517       -1023.980
E05  25396342.178          30.000       77155.294       -1160.614
C16  36405950.685          41.000       34440.326       -1642.117
C35  24242925.772          16.000           0.000       -1459.943
C19  23688487.202          29.000       97719.377       -1305.569
C20  23521062.407          34.000       28634.214       -2601.786
C38  36256104.221          31.000           0.000       -1393.342
C36  25220210.512          15.000      -81356.497        1084.558
E36  23873067.020          42.000        7910.509       -1320.222
J02  37628283.681          24.000      133460.461       -1807.672
C02  37422996.898          34.000      102766.804       -1873.317
R12  21598120.434          22.000           0.000        -176.436
> 2023 07 24 08 50 30.000560   0 37
G15  21743810.273          25.000      290352.948       -3828.280
G18  20852288.661          42.000        8611.957        -865.301
G23  22480851.830          18.000      -12697.578         161.545
G05  23634535.052          24.000      275831.321       -3639.913
J03  36102447.096          33.000       23287.398       -1941.068
R02  21428137.211          31.000           0.000       -2442.371
G12  25329553.515          13.000       -5388.210         106.742
C29  23564628.547          15.000           0.000       -4017.918
G13  24321873.417          17.000      264331.551       -4889.220
G24  20323771.646          19.000      115152.986       -1547.662
C37  25180800.395          20.000           0.000       -2905.058
G29  24410430.910          21.000      326361.024       -4471.007
G32  25502662.074           9.000       -3716.933         151.626
R18  22667688.787          23.000           0.000         979.318
E09  24378515.005          20.000      201960.825       -2889.619
R01  23181747.412          17.000           0.000       -3493.909
R24  21494502.567          35.000           0.000       -5671.809
C30  26372642.699          24.000           0.000       -4820.923
R17  20236539.237          24.000           0.000       -2293.737
R03  22746577.673          26.000           0.000        -955.909
C39  36153043.069          32.000           0.000       -1867.174
C06  36225569.160          39.000       16666.065       -1516.171
C08  36311975.942          30.000       81063.928       -1101.677
C46  23316970.597          27.000           0.000        -207.844
C09  37170480.512          31.000       28105.365       -1341.008
C13  36640150.352          25.000       77360.482       -1023.382
E05  25396565.823          30.000       78315.478       -1160.372
C16  36406267.266          41.000       36082.621       -1642.717
C35  24243208.176          20.000           0.000       -1459.332
C19  23688738.128          27.000       99026.168       -1306.995
C20  23521561.262          35.000       31237.539       -2602.869
C38  36256371.037          33.000           0.000       -1393.705
C36  25220007.252          15.000      -82439.861        1084.339
E36  23873318.845          42.000        9230.735       -1321.305
J02  37628628.143          25.000      135267.740       -1806.510
C02  37423356.050          35.000      104640.263       -1873.145
R12  21598159.107          25.000           0.000        -175.976
> 2023 07 24 08 50 31.000560   0 36
G15  21744537.870          26.000      294180.853       -3827.473
G18  20852456.245          42.000        9477.066        -865.596
G23  22480819.752          18.000      -12858.673         159.781
G05  23635225.774          24.000      279471.945       -3640.987
J03  36102812.543          35.000       25229.213       -1941.023
R02  21428580.304          28.000           0.000       -2442.281
G12  25329537.626          12.000       -5495.578         110.239
C29  23565400.812          15.000           0.000       -4016.875
G13  24322798.877          17.000      269224.699       -4895.939
G24  20324070.539          20.000      116698.930       -1545.126
C37  25181361.906          21.000           0.000       -2905.813
G29  24411281.122          21.000      330832.828       -4473.176
R18  22667504.714          22.000           0.000         979.344
E09  24379064.525          20.000      204850.319       -2886.662
R01  23182405.456          16.000           0.000       -3498.129
R24  21495571.327          30.000           0.000       -5672.429
C30  26373562.463          23.000           0.000       -4821.131
R17  20236958.347          23.000           0.000       -2294.595
R03  22746760.247          28.000           0.000        -955.522
C39  36153400.122          28.000           0.000       -1863.108
C06  36225861.158          39.000       18182.434       -1516.506
C08  36312187.296          32.000       82165.370       -1100.932
C46  23317005.973          26.000           0.000        -208.710
C09  37170739.532          30.000       29446.937       -1341.319
C13  36640347.016          28.000       78383.845       -1023.689
E05  25396788.569          29.000       79475.841       -1161.248
C16  36406582.947          40.000       37725.235       -1643.221
C35  24243491.480          29.000           0.000       -1457.137
C19  23688989.654          27.000      100332.776       -1306.381
C20  23522055.020          33.000       33840.929       -2605.524
C38  36256638.751          33.000           0.000       -1393.641
C36  25219797.398          19.000      -83524.532        1083.073
E36  23873568.872          40.000       10551.573       -1320.244
J02  37628972.005          27.000      137074.259       -1806.569
C02  37423715.501          34.000      106513.525       -1872.874
R12  21598200.478          25.000           0.000        -177.011
> 2023 07 24 08 50 32.000560   0 36
G15  21745268.464          24.000      298009.229       -3828.406
G18  20852622.030          42.000       10342.824        -865.901
G23  22480785.876          19.000      -13019.015         160.717
G05  23635920.693          24.000      283112.597       -3640.944
J03  36103183.086          37.000       27171.054       -1941.752
R02  21429028.194          23.000           0.000       -2442.493
G12  25329524.135          12.000       -5604.533         105.144
C29  23566172.778          14.000           0.000       -4015.992
G13  24323727.034          17.000      274119.377       -4895.437
G24  20324368.233          20.000      118244.921       -1547.170
C37  25181924.017          22.000           0.000       -2906.241
G29  24412137.629          20.000      335303.974       -4469.763
R18  22667314.946          22.000           0.000         978.460
E09  24379613.745          20.000      207739.125       -2891.274
R01  23183066.798          15.000           0.000       -3510.088
R24  21496627.796          31.000           0.000       -5672.624
C30  26374478.329          26.000           0.000       -4821.652
R17  20237378.955          22.000           0.000       -2295.679
R03  22746944.919          27.000           0.000        -953.492
C39  36153760.772          34.000           0.000       -1863.908
C06  36226150.758          38.000       19699.039       -1517.204
C08  36312399.249          30.000       83266.027       -1101.402
C46  23317045.545          25.000           0.000        -209.052
C09  37170997.954          28.000       30788.597       -1341.742
C13  36640542.780          29.000       79406.996       -1022.807
E05  25397010.116          29.000       80636.380       -1160.419
C16  36406896.530          39.000       39367.983       -1642.782
C35  24243770.887          31.000           0.000       -1456.465
C19  23689241.779          29.000      101639.206       -1306.184
C20  23522552.676          29.000       36444.406       -2601.678
C38  36256908.265          33.000           0.000       -1395.308
C36  25219583.646          29.000      -84607.278        1082.092
E36  23873819.199          40.000       11872.865       -1322.113
J02  37629320.663          26.000      138880.996       -1807.184
C02  37424074.652          33.000      108386.538       -1872.441
R12  21598233.755          26.000           0.000        -177.344
> 2023 07 24 08 50 33.000560   0 37
G15  21745996.060          25.000      301837.319       -3827.896
G18  20852789.015          41.000       11209.217        -866.436
G23  22480749.001          23.000      -13180.388         162.308
G05  23636615.911          23.000      286754.300       -3642.442
J03  36103554.229          35.000       29112.975       -1942.061
R02  21429487.476          28.000           0.000       -2442.833
G10  25289110.013          16.000           0.000         460.483
G12  25329509.445          11.000       -5709.760         107.651
C29  23566945.643          14.000           0.000       -4019.249
G13  24324660.288          17.000      279016.916       -4900.238
G24  20324664.428          20.000      119792.583       -1548.001
C37  25182483.429          21.000           0.000       -2909.033
G29  24412992.337          20.000      339774.887       -4471.166
R18  22667130.873          27.000           0.000         978.053
E09  24380162.964          20.000      210627.989       -2888.123
R01  23183725.442          14.000           0.000       -3527.672
R24  21497694.457          33.000           0.000       -5672.961
C30  26375403.788          28.000           0.000       -4818.749
R17  20237806.759          28.000           0.000       -2296.839
R03  22747125.994          26.000           0.000        -954.639
C39  36154119.324          35.000           0.000       -1863.303
C06  36226439.758          38.000       21215.925       -1517.227
C08  36312610.603          29.000       84366.586       -1099.705
C46  23317087.816          25.000           0.000        -209.468
C09  37171255.775          28.000       32131.225       -1343.062
C13  36640737.345          26.000       80429.091       -1022.596
E05  25397227.465          29.000       81797.517       -1161.471
C16  36407209.513          38.000       41011.091       -1642.605
C35  24244053.891          29.000           0.000       -1457.412
C19  23689494.504          29.000      102945.080       -1305.922
C20  23523056.327          31.000       39047.684       -2603.918
C38  36257173.581          33.000           0.000       -1394.054
C36  25219377.388          24.000      -85689.282        1081.367
E36  23874069.526          41.000       13194.692       -1321.804
J02  37629664.525          23.000      140688.522       -1810.066
C02  37424433.804          33.000      110259.350       -1872.609
R12  21598268.231          25.000           0.000        -179.026
> 2023 07 24 08 50 34.000560   0 37
G15  21746724.256          22.000      305665.325       -3828.090
G18  20852951.202          40.000       12076.440        -866.927
G23  22480712.427          24.000      -13343.046         162.619
G05  23637315.027          25.000      290397.190       -3643.159
J03  36103924.773          31.000       31054.477       -1942.068
R02  21429949.756          35.000           0.000       -2442.268
G10  25289030.269          12.000          -0.312         458.683
G12  25329489.359          11.000       -5816.518         104.586
C29  23567719.108          14.000           0.000       -4022.518
G13  24325590.544          16.000      283921.891       -4906.626
G24  20324961.522          20.000      121340.041       -1547.447
C37  25183041.043          21.000           0.000       -2907.565
G29  24413854.840          19.000      344245.724       -4470.786
R18  22666947.400          30.000           0.000         979.763
E09  24380713.683          20.000      213516.175       -2888.302
R01  23184385.285          14.000           0.000       -3527.994
R24  21498750.926          36.000           0.000       -5673.314
C30  26376331.646          27.000           0.000       -4818.433
R17  20238237.261          28.000           0.000       -2297.721
R03  22747304.370          24.000           0.000        -957.116
C39  36154479.375          37.000           0.000       -1864.905
C06  36226727.858          37.000       22733.148       -1516.931
C08  36312822.556          25.000       85467.396       -1101.071
C46  23317134.284          28.000           0.000        -211.298
C09  37171514.796          31.000       33473.329       -1341.951
C13  36640935.808          26.000       81451.546       -1022.348
E05  25397443.016          30.000       82958.842       -1161.439
C16  36407522.197          36.000       42654.561       -1643.190
C35  24244338.993          30.000           0.000       -1457.872
C19  23689746.630          28.000      104250.960       -1305.620
C20  23523562.377          31.000       41651.366       -2604.234
C38  36257440.996          30.000           0.000       -1394.240
C36  25219166.035          28.000      -86770.497        1080.636
E36  23874320.152          40.000       14517.292       -1322.916
J02  37630009.287          16.000      142498.972       -1810.379
C02  37424792.355          31.000      112132.195       -1872.526
R12  21598294.313          28.000           0.000        -180.064
> 2023 07 24 08 50 35.000560   0 37
G15  21747456.049          25.000      309493.078       -3827.690
G18  20853119.985          37.000       12944.059        -868.357
G23  22480688.443          23.000      -13506.077         163.070
G05  23638013.244          24.000      294040.810       -3643.564
J03  36104287.522          29.000       32995.562       -1940.976
R02  21430405.440          32.000           0.000       -2442.117
G10  25288946.327          13.000        -458.411         458.892
G12  25329467.774          10.000       -5921.369         107.187
C29  23568493.471          15.000           0.000       -4023.764
G13  24326521.100          14.000      288824.542       -4904.145
G24  20325256.518          24.000      122888.394       -1549.376
C37  25183603.754          20.000           0.000       -2906.696
G29  24414719.741          17.000      348716.789       -4471.285
R18  22666766.326          23.000           0.000         978.791
E09  24381261.104          20.000      216407.856       -2894.410
R01  23185054.122          14.000           0.000       -3534.282
R24  21499801.099          37.000           0.000       -5673.554
C30  26377259.503          33.000           0.000       -4818.440
R17  20238673.459          17.000           0.000       -2299.502
R03  22747481.847          22.000           0.000        -955.858
C39  36154836.727          41.000           0.000       -1863.600
C06  36227020.755          37.000       24250.118       -1516.186
C08  36313031.511          17.000       86566.872       -1099.418
C46  23317173.856          29.000           0.000        -211.751
C09  37171774.716          31.000       34814.619       -1341.169
C13  36641130.673          23.000       82474.661       -1021.812
E05  25397658.567          29.000       84120.975       -1163.500
C16  36407842.675          40.000       44297.724       -1643.014
C35  24244619.599          26.000           0.000       -1460.531
C19  23689995.158          21.000      105556.292       -1306.816
C20  23524067.227          33.000       44254.880       -2603.153
C38  36257704.214          26.000           0.000       -1395.154
C36  25218951.083          27.000      -87850.873        1079.807
E36  23874573.477          32.000       15839.693       -1321.824
J02  37630354.947          19.000      144308.746       -1808.635
C02  37425151.507          37.000      114004.951       -1872.442
R12  21598319.796          24.000           0.000        -177.787
> 2023 07 24 08 50 36.000560   0 38
G15  21748187.543          29.000      313320.635       -3827.610
G18  20853285.471          42.000       13812.016        -867.245
G23  22480661.462          16.000      -13673.543         167.442
G05  23638713.559          25.000      297683.579       -3642.992
J03  36104655.067          32.000       34936.614       -1941.446
R02  21430865.922          25.000           0.000       -2442.135
G10  25288862.984          13.000        -920.228         460.845
G12  25329449.487          13.000       -6026.754         101.459
C29  23569267.536          16.000           0.000       -4025.337
G13  24327443.261          13.000      293732.190       -4911.142
G24  20325552.413          20.000      124437.820       -1550.083
C37  25184160.169          19.000           0.000       -2907.316
G29  24415576.248          17.000      353186.529       -4467.380
R18  22666577.756          21.000           0.000         978.868
R13  22783063.615          19.000           0.000        1750.518
E09  24381810.624          25.000      219302.669       -2894.113
R01  23185724.458          14.000           0.000       -3540.745
R24  21500845.876          39.000           0.000       -5674.740
C30  26378187.661          34.000           0.000       -4818.050
R17  20239117.152          25.000           0.000       -2300.250
R03  22747660.524          20.000           0.000        -952.969
C39  36155194.979          41.000           0.000       -1863.205
C06  36227312.154          39.000       25766.898       -1516.197
C08  36313242.865          18.000       87665.597       -1100.092
C46  23317214.328          28.000           0.000        -209.985
C09  37172034.036          33.000       36155.701       -1341.290
C13  36641325.838          26.000       83496.515       -1022.307
E05  25397875.916          28.000       85282.802       -1161.499
C16  36408159.855          41.000       45940.691       -1643.063
C35  24244902.603          27.000           0.000       -1459.289
C19  23690247.883          24.000      106862.465       -1305.694
C20  23524566.082          29.000       46857.678       -2604.556
C38  36257973.427          19.000           0.000       -1395.498
C36  25218737.631          32.000      -88930.943        1080.241
E36  23874827.101          37.000       17162.637       -1321.352
J02  37630704.805          24.000      146115.952       -1805.335
C02  37425510.658          38.000      115877.621       -1872.358
R12  21598348.576          24.000           0.000        -181.044
> 2023 07 24 08 50 37.000560   0 38
G15  21748917.837          31.000      317148.388       -3828.140
G18  20853453.055          37.000       14681.084        -870.366
G23  22480629.684          26.000      -13839.724         165.051
G05  23639406.080          21.000      301326.385       -3643.096
J03  36105028.009          30.000       36878.630       -1942.406
R02  21431335.996          30.000           0.000       -2442.348
G10  25288779.342          14.000       -1379.592         458.853
G12  25329434.198          13.000       -6128.154         100.363
C29  23570040.401          17.000           0.000       -4025.563
G13  24328370.520          13.000      298649.807       -4918.662
G24  20325843.212          17.000      125988.060       -1548.280
C37  25184718.382          18.000           0.000       -2908.425
G29  24416433.055          17.000      357653.459       -4467.613
R18  22666392.484          29.000           0.000         977.966
R13  22782764.422          20.000           0.000        1742.919
E09  24382360.743          25.000      222194.736       -2891.356
R01  23186390.297          13.000           0.000       -3536.212
R24  21501920.931          40.000           0.000       -5675.346
C30  26379114.919          28.000           0.000       -4818.853
R17  20239554.250          31.000           0.000       -2300.719
R03  22747835.003          23.000           0.000        -954.237
C39  36155556.229          36.000           0.000       -1862.578
C06  36227607.749          34.000       27284.438       -1517.801
C08  36313454.818          28.000       88766.289       -1100.992
C46  23317253.901          27.000           0.000        -208.892
C09  37172292.158          33.000       37497.207       -1341.912
C13  36641523.101          27.000       84519.056       -1023.634
E05  25398095.364          27.000       86445.562       -1163.080
C16  36408477.036          40.000       47584.388       -1644.545
C35  24245181.410          30.000           0.000       -1459.565
C19  23690497.010          34.000      108168.235       -1306.096
C20  23525063.737          35.000       49462.099       -2604.122
C38  36258242.941          29.000           0.000       -1394.719
C36  25218520.881          26.000      -90012.883        1082.499
E36  23875072.032          29.000       18486.058       -1323.356
J02  37631052.265          25.000      147919.844       -1803.259
C02  37425868.311          31.000      117750.772       -1877.218
R12  21598379.155          28.000           0.000        -182.319
> 2023 07 24 08 50 38.000560   0 38
G15  21749648.132          33.000      320976.019       -3827.515
G18  20853615.243          39.000       15548.068        -865.364
G23  22480598.206          29.000      -14004.519         165.173
G05  23640096.502          22.000      304969.475       -3642.598
J03  36105402.750          28.000       38820.355       -1940.554
R02  21431801.874          32.000           0.000       -2440.809
G10  25288698.698          13.000       -1842.456         463.044
G12  25329414.711          13.000       -6227.303          97.644
C29  23570814.165          17.000           0.000       -4033.335
G13  24329304.073          12.000      303573.416       -4921.167
G24  20326140.006          16.000      127536.701       -1548.418
C37  25185277.795          20.000           0.000       -2907.717
G29  24417290.462          17.000      362121.987       -4468.040
R18  22666213.508          32.000           0.000         978.029
R13  22782422.059          19.000           0.000        1737.123
E09  24382911.761          25.000      225081.317       -2886.031
R01  23187052.839          13.000           0.000       -3539.363
R24  21502994.788          38.000           0.000       -5671.253
C30  26380047.273          28.000           0.000       -4818.726
R17  20239984.752          32.000           0.000       -2299.625
R03  22748010.382          20.000           0.000        -952.744
C39  36155912.982          32.000           0.000       -1862.469
C06  36227900.646          37.000       28799.347       -1514.346
C08  36313666.472          28.000       89867.094       -1100.497
C46  23317293.174          28.000           0.000        -207.349
C09  37172549.080          32.000          -0.427       -1339.113
C10  40454917.044          19.000           0.000       -2635.753
C13  36641722.164          24.000       85541.862       -1023.173
E05  25398311.815          28.000       87607.723       -1162.797
C16  36408792.417          40.000       49225.514       -1639.960
C35  24245456.919          29.000           0.000       -1458.513
C19  23690745.838          33.000      109473.784       -1304.612
C20  23525562.592          38.000       52065.307       -2601.735
C38  36258510.655          32.000           0.000       -1392.225
C36  25218304.431          23.000      -91094.618        1082.433
E36  23875318.761          30.000       19808.849       -1322.358
J02  37631401.523          23.000      149722.742       -1802.385
C02  37426226.263          20.000      119622.877       -1870.883
> 2023 07 24 08 50 39.000560   0 38
G15  21750376.028          30.000      324803.154       -3826.846
G18  20853781.627          38.000       16415.611        -869.034
G23  22480565.229          30.000      -14170.481         166.263
G05  23640785.425          24.000      308611.579       -3641.834
J03  36105775.991          30.000       40760.694       -1940.159
R02  21432263.854          34.000           0.000       -2439.734
G10  25288612.058          11.000       -2311.648         466.380
G12  25329396.424          14.000       -6323.406          94.381
C29  23571589.428          17.000           0.000       -4031.526
G13  24330230.132          11.000      308491.630       -4919.386
G24  20326438.300          17.000      129084.982       -1545.876
C37  25185839.906          20.000           0.000       -2906.861
G29  24418136.176          16.000      366589.841       -4468.142
R18  22666031.834          33.000           0.000         979.110
R13  22782090.488          20.000           0.000        1738.559
E09  24383461.581          24.000      227966.989       -2884.705
R01  23187715.980          12.000           0.000       -3541.497
R24  21504055.454          39.000           0.000       -5673.335
C30  26380979.028          26.000           0.000       -4817.448
R17  20240417.052          31.000           0.000       -2298.758
R03  22748185.460          16.000           0.000        -946.029
C39  36156269.136          32.000           0.000       -1862.138
C06  36228191.145          38.000       30314.319       -1515.469
C08  36313878.125          27.000       90966.740       -1099.112
C46  23317331.547          28.000           0.000        -207.359
C09  37172803.304          32.000        1338.666       -1339.062
C10  40455307.673          14.000           0.377       -2632.112
C13  36641922.125          22.000       86564.159       -1021.590
E05  25398529.164          25.000       88770.056       -1161.179
C16  36409106.300          41.000       50866.730       -1641.778
C35  24245736.026          29.000           0.000       -1457.299
C19  23690991.368          33.000      110778.074       -1304.038
C20  23526063.845          39.000           0.241       -2600.932
C38  36258779.569          31.000           0.000       -1391.924
C36  25218086.482          21.000      -92177.902        1082.706
E36  23875566.090          29.000       21130.746       -1321.914
J02  37631750.481          17.000      151525.566       -1803.114
C02  37426585.714          24.000      121502.347       -1886.889
> 2023 07 24 08 50 40.000560   0 38
G15  21751103.025          31.000      328629.955       -3827.632
G18  20853947.712          38.000       17286.262        -870.607
G23  22480533.451          31.000      -14336.524         164.246
G05  23641476.446          24.000      312253.806       -3643.567
J03  36106144.436          35.000       42701.075       -1941.206
R02  21432722.237          35.000           0.000       -2440.920
G10  25288530.515           9.000       -2777.843         462.598
G12  25329380.235          14.000       -6416.228          91.551
C29  23572364.392          16.000           0.000       -4028.596
G13  24331169.682           9.000      313410.135       -4924.704
G24  20326732.396          16.000      130631.842       -1549.174
C37  25186401.117          21.000           0.000       -2908.694
G29  24418983.090          16.000      371058.519       -4469.928
R18  22665852.558          34.000           0.000         975.145
R13  22781760.417          19.000           0.000        1742.616
E09  24384011.700          23.000      230852.672       -2886.536
R11  23490315.994          17.000           0.000       -3505.518
R01  23188384.217           9.000           0.000       -3534.560
R24  21505104.727          40.000           0.000       -5677.429
C30  26381909.584          24.000           0.000       -4816.149
R17  20240850.552          32.000           0.000       -2300.381
R03  22748359.940           9.000           0.000        -948.219
C39  36156626.189          31.000           0.000       -1865.019
C06  36228481.644          39.000       31831.926       -1519.090
C08  36314089.179          30.000       92066.698       -1101.166
C46  23317369.621          28.000           0.000        -210.495
C09  37173054.530          29.000        2680.240       -1338.380
C10  40455826.314          12.000        2632.545       -2635.463
C13  36642114.592          22.000       87584.387       -1019.801
E05  25398745.914          27.000       89930.933       -1162.291
C16  36409421.082          41.000       52510.507       -1644.529
C35  24246015.733          28.000           0.000       -1458.657
C19  23691244.393          32.000           0.515       -1304.714
C20  23526561.800          38.000        2603.450       -2603.681
C38  36259047.284          31.000           0.000       -1393.593
C36  25217873.929          19.000      -93261.618        1083.170
E36  23875816.116          29.000       22451.876       -1323.712
J02  37632102.138          17.000      153327.093       -1802.128
> 2023 07 24 08 50 41.000560   0 38
G15  21751830.321          29.000      332458.579       -3829.415
G18  20854112.898          38.000       18159.370        -873.333
G23  22480500.473          30.000      -14500.002         161.896
G05  23642167.768          24.000      315898.423       -3645.896
J03  36106511.382          37.000       44643.797       -1944.268
R02  21433181.818          37.000           0.000       -2443.112
G10  25288450.470           9.000       -3240.442         458.284
G12  25329361.948          12.000       -6503.281          84.360
C29  23573137.856          15.000           0.000       -4026.058
G13  24332102.636           9.000      318335.418       -4924.857
G24  20327027.991          15.000      132179.930       -1548.355
C37  25186966.826          21.000           0.000       -2911.497
G29  24419831.502          17.000      375528.359       -4470.644
R18  22665673.582          35.000           0.000         972.907
R13  22781430.046          19.000           0.000        1741.112
E09  24384562.719          23.000      233742.873       -2893.339
R11  23490951.854          13.000           0.000       -3487.473
R01  23189047.058           9.000           0.000       -3539.436
R24  21506154.600          40.000           0.000       -5678.705
C30  26382836.243          27.000           0.000       -4817.332
R17  20241284.052          32.000           0.000       -2304.671
R03  22748537.716          10.000           0.000        -955.980
C39  36156982.042          31.000           0.000       -1867.129
C06  36228772.743          39.000       33351.524       -1520.070
C08  36314299.933          30.000       93168.132       -1101.837
C46  23317408.294          27.000           0.000        -213.905
C09  37173317.748          29.000        4024.027       -1344.747
C10  40456340.758          10.000        5267.724       -2632.031
C13  36642313.055          24.000       88604.940       -1021.471
E05  25398965.662          27.000       91094.717       -1164.436
C16  36409737.064          40.000       54156.351       -1646.384
C35  24246295.739          30.000           0.000       -1462.799
C19  23691502.814          30.000        1308.111       -1308.052
C20  23527063.053          37.000        5208.560       -2605.982
C38  36259317.996          30.000           0.000       -1397.906
C36  25217665.274          25.000      -94343.483        1080.579
E36  23876068.242          30.000       23777.371       -1327.455
J02  37632445.100          16.000      155128.409       -1802.439
> 2023 07 24 08 50 42.000560   0 38
G15  21752558.817          29.000      336289.176       -3831.563
G18  20854283.180          34.000       19035.687        -878.803
G23  22480469.295          31.000      -14661.148         159.977
G05  23642861.188          25.000      319545.500       -3648.184
J03  36106874.431          36.000       46589.038       -1946.605
R02  21433644.698          37.000           0.000       -2445.411
G10  25288365.029           9.000       -3697.977         458.353
G12  25329346.059          12.000       -6586.484          83.248
C29  23573911.621          14.000           0.000       -4027.395
G13  24333037.689           9.000      323260.281       -4925.749
G24  20327321.788          15.000      133729.111       -1552.035
C37  25187525.039          20.000           0.000       -2914.630
G29  24420681.114          17.000      379999.858       -4473.396
R18  22665494.606          34.000           0.000         970.551
R13  22781099.974          19.000           0.000        1745.085
E09  24385113.437          23.000      236637.614       -2895.838
R11  23491567.028           9.000           0.000       -3487.363
R01  23189711.098           9.000           0.000       -3543.155
R24  21507219.463          40.000           0.000       -5680.028
C30  26383761.402          27.000           0.000       -4822.182
R17  20241719.950          31.000           0.000       -2307.989
R03  22748726.885          15.000           0.000        -961.083
C39  36157334.598          30.000           0.000       -1869.620
C06  36229065.340          39.000       34872.571       -1521.290
C08  36314510.987          27.000       94270.865       -1103.334
C46  23317445.169          28.000           0.000        -217.325
C09  37173575.869          31.000        5369.166       -1346.389
C10  40456847.407           9.000        7900.317       -2635.928
C13  36642504.022          21.000       89627.777       -1024.187
E05  25399186.309          27.000       92259.573       -1166.161
C16  36410053.345          39.000       55803.593       -1647.429
C35  24246578.443          30.000           0.000       -1465.982
C19  23691748.644          31.000        2617.047       -1309.738
C20  23527563.107          35.000        7814.867       -2606.510
C38  36259586.910          30.000           0.000       -1398.269
C36  25217455.119          19.000      -95422.659        1076.262
E36  23876327.862          29.000       25106.149       -1330.646
J02  37632789.262          16.000      156930.696       -1803.021
> 2023 07 24 08 50 43.000560   0 38
G15  21753285.214          26.000      340121.612       -3833.382
G18  20854445.368          29.000       19913.750        -877.263
G23  22480439.615          32.000      -14820.665         158.798
G05  23643559.704          24.000      323194.309       -3649.412
J03  36107242.576          35.000           0.108       -1946.249
R02  21434106.378          38.000           0.000       -2445.679
G12  25329328.371          12.000       -6668.586          81.396
C29  23574685.085          16.000           0.000       -4029.236
G13  24333973.940           9.000      328186.086       -4926.662
G24  20327619.182          14.000      135281.379       -1551.701
C37  25188081.154          19.000           0.000       -2915.833
G29  24421527.428          17.000      384473.831       -4474.922
R18  22665314.731          34.000           0.000         969.379
R13  22780766.005          19.000           0.000        1737.128
E09  24385664.456          23.000      239531.745       -2893.684
R11  23492209.783           9.000           0.000       -3500.999
R01  23190376.638           9.000           0.000       -3528.782
R24  21508283.726          41.000           0.000       -5680.795
C30  26384686.262          23.000           0.000       -4823.511
R17  20242160.046          31.000           0.000       -2310.071
R03  22748904.662          23.000           0.000        -961.510
C39  36157688.653          30.000           0.000       -1870.843
C06  36229357.038          39.000       36394.492       -1521.564
C08  36314723.240          29.000       95374.964       -1104.411
C46  23317485.341          27.000           0.000        -217.937
C09  37173831.892          30.000        6715.065       -1345.125
C10  40457357.354           9.000       10536.398       -2635.016
C13  36642698.288          23.000       90654.344       -1027.517
E05  25399405.457          21.000       93425.288       -1166.294
C16  36410371.125          39.000       57451.676       -1648.698
C35  24246857.850          30.000           0.000       -1466.902
C19  23691997.771          32.000        3926.713       -1310.843
C20  23528063.760          35.000       10421.895       -2606.184
C38  36259854.625          29.000           0.000       -1397.503
C36  25217248.262          19.000      -96499.050        1076.333
E36  23876586.283          29.000       26436.352       -1331.507
E04  27202300.639          19.000           0.000       -3780.234
J02  37633135.522          16.000      158735.195       -1806.338
> 2023 07 24 08 50 44.000560   0 38
G15  21754013.110          26.000      343954.984       -3833.683
G18  20854610.554          31.000       20790.464        -876.579
G23  22480410.236          30.000      -14979.255         158.299
G05  23644252.525          24.000      326844.092       -3650.268
J03  36107635.004          32.000        1947.140       -1950.197
R02  21434577.052          36.000           0.000       -2446.106
G12  25329311.283          12.000       -6753.456          87.117
C29  23575460.049          16.000           0.000       -4028.896
G13  24334910.492           9.000      333112.551       -4927.052
G24  20327915.677          12.000      136837.142       -1558.056
C37  25188628.575          19.000           0.000       -2915.589
G29  24422383.336          18.000      388949.083       -4475.127
R18  22665132.757          33.000           0.000         968.392
R13  22780439.531          18.000           0.000        1736.724
E09  24386215.774          25.000      242427.013       -2898.077
R11  23492853.737           9.000           0.000       -3509.254
R01  23191036.481           9.000           0.000       -3519.799
R24  21509344.092          40.000           0.000       -5680.923
C30  26385608.723          29.000           0.000       -4823.339
R17  20242597.743          32.000           0.000       -2311.590
R03  22749083.039          17.000           0.000        -961.539
C39  36158046.305          32.000           0.000       -1870.164
C06  36229647.537          39.000       37916.603       -1523.289
C08  36314934.294          27.000       96480.608       -1106.711
C46  23317525.213          29.000           0.000        -219.221
C09  37174095.109          32.000        8061.455       -1350.814
C10  40457867.001           9.000       13172.413       -2637.521
C13  36642900.648          21.000       91682.751       -1028.446
E05  25399626.405          22.000       94592.501       -1165.578
C16  36410687.406          40.000       59100.023       -1648.157
C35  24247142.053          29.000           0.000       -1467.440
C19  23692248.997          32.000        5236.459       -1308.392
C20  23528561.716          37.000       13029.044       -2608.075
C38  36260121.440          30.000           0.000       -1399.402
C36  25217037.208          24.000      -97575.739        1078.490
E36  23876844.105          28.000       27768.013       -1332.516
E04  27203048.621          16.000           0.049       -3780.722
J02  37633483.282          16.000      160544.617       -1812.058
> 2023 07 24 08 50 45.000560   0 38
G15  21754741.606          27.000      347788.877       -3834.110
G18  20854776.639          32.000       21667.133        -877.088
G23  22480379.357          29.000      -15138.070         159.055
G05  23644940.848          21.000      330494.537       -3650.042
J03  36107991.158          33.000        3894.411       -1949.243
R02  21435039.932          35.000           0.000       -2446.553
G12  25329298.392          12.000       -6842.472          89.569
C29  23576233.813          17.000           0.000       -4029.652
G13  24335847.643           9.000      338040.175       -4928.774
G24  20328213.071          14.000      138397.697       -1563.379
C37  25189175.996          24.000           0.000       -2918.569
G29  24423235.646          19.000      393424.350       -4475.203
R18  22664951.982          32.000           0.000         968.147
R13  22780108.261          18.000           0.000        1740.080
E09  24386766.193          23.000      245323.857       -2895.865
R11  23493501.289           9.000           0.000       -3529.940
R01  23191691.827           9.000           0.000       -3509.599
R24  21510405.358          41.000           0.000       -5681.420
C30  26386533.583          22.000           0.000       -4821.939
R17  20243030.943          29.000           0.000       -2312.050
R03  22749261.116          16.000           0.000        -962.315
C39  36158405.757          30.000           0.000       -1869.333
C06  36229938.336          38.000       39439.060       -1522.699
C08  36315145.348          28.000       97586.606       -1106.456
C46  23317567.184          27.000           0.000        -217.164
C09  37174350.233          32.000        9407.825       -1343.577
C10  40458376.049           9.000       15810.840       -2638.791
C13  36643103.008          20.000       92711.663       -1028.429
E05  25399847.651          16.000       95758.816       -1166.755
C16  36411000.389          40.000       60748.716       -1647.828
C35  24247424.158          30.000           0.000       -1467.825
C19  23692508.618          32.000        6546.206       -1310.044
C20  23529060.570          35.000       15636.192       -2607.524
C38  36260391.253          29.000           0.000       -1400.401
C36  25216830.951          20.000      -98654.413        1077.387
E36  23877104.624          30.000       29100.031       -1332.480
E04  27203753.733          16.000        3781.975       -3783.307
J02  37633830.142          15.000      162357.670       -1812.885
> 2023 07 24 08 50 46.000560   0 38
G15  21755468.902          26.000      351622.933       -3833.844
G18  20854949.619          31.000       22545.435        -878.567
G23  22480349.978          31.000      -15297.259         159.148
G05  23645645.360          21.000      334144.248       -3649.958
J03  36108356.905          37.000        5841.718       -1948.066
R02  21435505.210          37.000           0.000       -2446.754
G12  25329282.203          13.000       -6936.688          97.153
C29  23577008.177          17.000           0.000       -4030.265
G13  24336786.893           9.000      342968.611       -4928.793
G24  20328510.165          16.000      139962.169       -1564.608
C37  25189730.912          27.000           0.000       -2918.672
G29  24424087.356          19.000      397899.224       -4474.877
R18  22664771.507          33.000           0.000         966.519
R13  22779781.787          17.000           0.000        1749.008
E09  24387317.212          22.000      248220.167       -2896.514
R11  23494150.340           9.000           0.000       -3543.461
R01  23192344.475           9.000           0.000       -3503.641
R24  21511470.520          41.000           0.000       -5682.090
C30  26387456.044          26.000           0.000       -4821.061
R17  20243468.640          29.000           0.000       -2312.928
R03  22749434.396          17.000           0.000        -963.626
C39  36158769.105          32.000           0.000       -1869.912
C06  36230230.633          38.000       40961.541       -1523.019
C08  36315357.601          27.000       98692.198       -1105.104
C46  23317607.057          26.000           0.000        -218.012
C09  37174605.356          30.000       10754.345       -1345.341
C10  40458885.696          10.000       18451.556       -2642.792
C13  36643299.971          21.000       93741.597       -1030.511
E05  25400070.397          20.000       96926.040       -1167.588
C16  36411317.869          39.000       62397.393       -1649.501
C35  24247706.862          31.000           0.000       -1467.646
C19  23692753.548          33.000        7855.961       -1310.941
C20  23529563.322          34.000       18243.295       -2607.716
C38  36260660.767          30.000           0.000       -1399.695
C36  25216623.195          17.000      -99730.618        1073.358
E36  23877365.444          26.000       30434.418       -1335.125
E04  27204472.036          16.000        7563.786       -3781.239
J02  37634179.100          17.000      164169.686       -1810.776
> 2023 07 24 08 50 47.000560   0 37
G15  21756196.199          26.000      355456.723       -3834.078
G18  20855117.203          31.000       23424.438        -879.352
G23  22480319.998          30.000      -15456.609         159.416
G05  23646342.078          19.000      337794.423       -3651.172
J03  36108726.849          37.000        7789.072       -1947.442
R02  21435960.295          36.000           0.000       -2445.965
G12  25329265.115          13.000       -7035.435          99.383
C29  23577782.841          18.000           0.000       -4031.805
G13  24337722.845           9.000      347897.894       -4929.366
G24  20328812.356          17.000      141527.744       -1565.756
C37  25190285.528          27.000           0.000       -2917.086
G29  24424944.763          20.000      402373.639       -4474.389
R18  22664591.032          33.000           0.000         966.755
R13  22779441.822          16.000           0.000        1746.978
E09  24387868.230          22.000      251115.800       -2893.650
R11  23494806.585           9.000           0.000       -3535.838
R24  21512528.788          40.000           0.000       -5681.906
C30  26388379.105          26.000           0.000       -4819.474
R17  20243901.840          31.000           0.000       -2313.553
R03  22749616.969          17.000           0.000        -965.883
C39  36159132.154          33.000           0.000       -1869.366
C06  36230526.229          37.000       42484.125       -1523.369
C08  36315568.655          28.000       99797.280       -1105.290
C46  23317649.327          22.000           0.000        -218.749
C09  37174870.073          32.000       12100.921       -1344.882
C10  40459396.842          11.000       21093.578       -2640.671
C13  36643498.134          22.000       94771.443       -1029.101
E05  25400293.743          25.000       98093.588       -1167.695
C16  36411634.750          39.000       64046.209       -1648.472
C35  24247988.967          35.000           0.000       -1468.131
C19  23693008.971          33.000        9165.617       -1308.233
C20  23530057.380          34.000       20850.320       -2605.877
C38  36260929.981          29.000           0.000       -1399.762
C36  25216416.638          16.000     -100805.135        1075.798
E36  23877627.163          26.000       31768.329       -1332.692
E04  27205189.739          18.000       11344.266       -3779.907
J02  37634536.153          17.000      165979.848       -1810.045
> 2023 07 24 08 50 48.000560   0 37
G15  21756924.395          23.000      359290.459       -3833.585
G18  20855290.483          32.000       24303.351        -878.198
G23  22480296.015          28.000      -15616.126         159.381
G05  23647039.095          17.000      341447.235       -3654.116
J03  36109099.790          40.000        9736.401       -1947.323
R02  21436412.682          34.000           0.000       -2445.892
G12  25329246.528          14.000       -7137.774         103.878
C29  23578557.504          19.000           0.000       -4031.788
G24  20329113.048          18.000      143092.828       -1565.429
C37  25190843.142          27.000           0.000       -2917.432
G29  24425801.270          21.000      406847.833       -4473.813
R18  22664409.957          33.000           0.000         965.557
R13  22779106.954          17.000           0.000        1753.613
E09  24388419.548          22.000      254011.469       -2897.811
R11  23495467.927          12.000           0.000       -3536.097
R24  21513603.843          39.000           0.000       -5681.928
C30  26389300.368          28.000           0.000       -4818.773
R17  20244332.342          27.000           0.000       -2313.733
R03  22749808.836          16.000           0.000        -971.317
C39  36159498.800          34.000           0.000       -1869.509
C06  36230821.224          38.000       44006.866       -1521.114
C08  36315782.107          26.000      100902.979       -1106.043
C46  23317692.797          22.000           0.000        -219.952
C09  37175128.194          31.000       13447.713       -1345.908
C10  40459909.488          12.000       23739.197       -2650.189
C13  36643696.297          24.000       95800.468       -1029.594
E05  25400516.189          28.000       99261.090       -1167.675
C16  36411951.031          38.000       65695.126       -1647.606
C35  24248269.872          35.000           0.000       -1468.477
C19  23693259.897          31.000       10475.197       -1308.110
C20  23530555.336          32.000       23457.366       -2606.006
C38  36261197.995          31.000           0.000       -1399.865
C36  25216216.077          18.000     -101881.902        1078.329
E36  23877883.485          25.000       33099.973       -1331.480
E04  27205904.444          19.000       15123.913       -3779.349
J02  37634884.811          18.000      167788.580       -1807.618
C02  37429830.368          29.000      138452.066       -1876.932
> 2023 07 24 08 50 49.000560   0 38
G15  21757654.090          23.000      363123.490       -3833.064
G18  20855454.170          29.000       25181.799        -879.260
G23  22480266.635          29.000      -15775.447         159.053
G05  23647731.916          17.000      345102.930       -3656.652
J03  36109468.235          37.000       11683.781       -1946.897
R02  21436864.469          32.000           0.000       -2445.897
G12  25329230.639          13.000       -7241.682         105.475
C29  23579332.168          20.000           0.000       -4032.078
G24  20329409.543          25.000      144657.841       -1564.581
C37  25191399.257          26.000           0.000       -2917.783
G29  24426658.976          23.000      411321.586       -4473.531
R18  22664226.784          33.000           0.000         964.472
R13  22778776.583          17.000           0.000        1753.270
E09  24388971.766          22.000      256908.876       -2898.172
R11  23496123.574          12.000           0.000       -3544.107
R24  21514671.704          39.000           0.000       -5681.838
C30  26390221.630          23.000           0.000       -4820.452
R17  20244758.347          26.000           0.000       -2315.273
R03  22749987.213          16.000           0.000        -971.300
C39  36159860.649          36.000           0.000       -1873.076
C06  36231112.023          37.000       45529.540       -1522.916
C08  36315995.559          25.000      102008.673       -1105.043
C46  23317742.863          26.000           0.000        -219.630
C09  37175385.416          33.000       14794.465       -1345.616
C10  40460423.632          12.000       26392.678       -2657.810
C13  36643894.760          25.000       96829.099       -1028.113
E05  25400740.433          27.000      100428.713       -1167.771
C16  36412268.811          39.000       67344.077       -1650.503
C35  24248550.178          34.000           0.000       -1468.347
C19  23693515.620          32.000       11784.737       -1310.023
C20  23531055.689          31.000       26064.528       -2606.308
C38  36261466.609          31.000           0.000       -1399.490
C36  25216009.520          18.000     -102961.029        1080.166
E36  23878139.208          25.000       34433.023       -1332.843
E04  27206621.848          20.000       18902.999       -3779.053
J02  37635233.470          20.000      169597.211       -1809.815
C02  37430189.819          34.000      140328.732       -1875.518
R12  21598767.086          31.000           0.000        -192.241
> 2023 07 24 08 50 50.000560   0 38
G15  21758385.883          29.000      366956.915       -3833.334
G18  20855617.856          30.000       26061.565        -880.492
G23  22480236.656          28.000      -15935.161         160.525
G05  23648423.837          17.000      348758.519       -3655.350
J03  36109842.376          33.000       13631.574       -1948.937
R02  21437316.256          33.000           0.000       -2446.106
G12  25329213.251          13.000       -7346.401         103.814
C29  23580107.132          20.000           0.000       -4031.532
G24  20329702.740          26.000      146221.619       -1563.726
C37  25191953.573          23.000           0.000       -2915.961
G29  24427518.181          19.000      415795.004       -4473.251
R18  22664046.309          33.000           0.000         964.368
R13  22778437.217          17.000           0.000        1749.816
E09  24389523.684          21.000      259808.014       -2899.276
R11  23496776.821          12.000           0.000       -3549.487
R24  21515731.470          37.000           0.000       -5682.964
C30  26391145.290          25.000           0.000       -4819.404
R17  20245181.054          27.000           0.000       -2315.273
R03  22750176.982          16.000           0.000        -970.845
C39  36160216.203          32.000           0.000       -1870.574
C06  36231401.922          37.000       47052.166       -1522.441
C08  36316209.012          29.000      103113.543       -1104.671
C46  23317789.930          25.000           0.000        -219.575
C09  37175645.036          32.000       16140.511       -1342.392
C10  40460937.176          12.000       29049.049       -2655.914
C13  36644090.524          22.000       97854.610       -1023.763
E05  25400966.777          27.000      101596.459       -1167.509
C16  36412582.694          39.000       68992.993       -1648.375
C35  24248831.383          34.000           0.000       -1468.905
C19  23693768.046          31.000       13092.399       -1306.709
C20  23531558.441          29.000       28670.890       -2606.086
C38  36261736.422          32.000           0.000       -1397.784
C36  25215806.860          27.000     -104041.622        1080.848
E36  23878388.036          31.000       35765.486       -1332.418
E04  27207336.853          21.000       22681.977       -3778.207
J02  37635580.929          24.000      171407.693       -1811.145
C02  37430548.970          36.000      142203.925       -1874.105
R12  21598809.057          29.000           0.000        -192.189
> 2023 07 24 08 50 51.000560   0 37
G15  21759113.779          28.000      370790.460       -3833.909
G18  20855783.641          31.000       26942.384        -881.333
G23  22480206.677          28.000      -16096.364         161.107
G05  23649114.559          18.000      352411.658       -3652.171
J03  36110209.022          31.000       15578.203       -1946.249
R02  21437766.544          29.000           0.000       -2445.327
G12  25329193.464          15.000       -7448.287         107.173
C29  23580881.795          21.000           0.000       -4032.364
G24  20329996.236          23.000      147785.702       -1564.448
C37  25192503.093          19.000           0.000       -2917.588
G29  24428372.889          18.000      420267.957       -4472.400
R18  22663863.135          29.000           0.000         966.704
R13  22778106.247          17.000           0.000        1741.160
E09  24390073.803          24.000      262706.004       -2898.685
R11  23497441.461          11.000           0.000       -3570.603
R24  21516788.838          33.000           0.000       -5683.093
C30  26392067.452          37.000           0.000       -4819.016
R17  20245615.753          24.000           0.000       -2315.739
R03  22750367.350          17.000           0.000        -961.953
C39  36160576.254          34.000           0.000       -1870.587
C06  36231693.620          33.000       48574.626       -1523.954
C08  36316421.565          25.000      104218.875       -1105.124
C46  23317836.398          24.000           0.000        -218.975
C09  37175903.757          28.000       17486.961       -1344.659
C10  40461449.821          12.000       31703.703       -2653.536
C13  36644286.888          21.000       98880.017       -1026.061
E05  25401190.122          26.000      102763.700       -1166.830
C16  36412901.673          37.000       70642.117       -1645.937
C35  24249114.088          28.000           0.000       -1467.993
C19  23694016.574          29.000       14399.277       -1308.618
C20  23532061.193          27.000       31277.493       -2607.341
C38  36262003.238          33.000           0.000       -1399.914
C36  25215601.203          32.000     -105123.074        1081.812
E36  23878634.765          30.000       37098.422       -1333.704
E04  27208049.160          21.000       26460.332       -3779.194
J02  37635925.691          25.000      173218.957       -1812.433
C02  37430908.122          36.000      144077.862       -1875.940
> 2023 07 24 08 50 52.000560   0 37
G15  21759844.673          26.000      374623.878       -3833.796
G18  20855947.028          34.000       27824.387        -882.974
G23  22480172.201          26.000      -16256.521         160.431
G05  23649807.079          18.000      356063.017       -3650.418
J03  36110577.168          31.000       17525.026       -1948.214
R02  21438219.231          31.000           0.000       -2445.862
G12  25329181.173          14.000       -7556.976         108.124
C29  23581656.759          21.000           0.000       -4033.130
G24  20330293.331          23.000      149350.680       -1564.246
C37  25193059.508          23.000           0.000       -2919.236
G29  24429227.298          18.000      424738.395       -4470.985
J02  37636234.177          19.000           0.000       -1807.519
R18  22663682.061          29.000           0.000         965.062
R13  22777782.171          18.000           0.000        1734.305
E09  24390623.623          24.000      265604.640       -2895.184
R11  23498104.302          10.000           0.000       -3570.026
R24  21517848.605          30.000           0.000       -5683.113
C30  26392989.314          41.000           0.000       -4820.388
R17  20246051.052          26.000           0.000       -2317.310
R03  22750556.219          19.000           0.000        -961.218
C39  36160933.607          30.000           0.000       -1871.527
C06  36231985.618          35.000       50098.394       -1524.107
C08  36316631.719          23.000      105323.891       -1105.268
C46  23317880.767          30.000           0.000        -220.541
C09  37176160.979          28.000       18832.378       -1345.973
C10  40461962.466          12.000       34362.373       -2662.229
C13  36644483.852          20.000       99904.413       -1024.101
E05  25401413.767          26.000      103931.968       -1167.784
C16  36413217.054          31.000       72291.124       -1649.280
C35  24249396.792          30.000           0.000       -1470.059
C19  23694265.701          24.000       15708.378       -1309.685
C20  23532563.945          34.000       33884.605       -2607.158
C38  36262272.751          27.000           0.000       -1399.531
C36  25215397.044          30.000     -106203.860        1079.743
E36  23878882.394          35.000       38432.823       -1335.243
E04  27208763.865          20.000       30238.931       -3778.007
C02  37431266.973          28.000      145953.948       -1875.684
> 2023 07 24 08 50 53.000560   0 37
G15  21760574.068          28.000      378457.227       -3833.128
G18  20856116.411          29.000       28706.254        -882.195
G23  22480139.823          21.000      -16416.644         159.731
G05  23650499.900          19.000      359711.948       -3648.774
J03  36110945.013          29.000       19473.176       -1948.401
R02  21438675.815          35.000           0.000       -2446.268
G10  25287375.114          17.000           0.000         459.271
G12  25329162.286          12.000       -7666.187         110.930
C29  23582432.622          21.000           0.000       -4032.442
G24  20330584.429          25.000      150915.230       -1565.158
C37  25193614.723          26.000           0.000       -2920.001
G29  24430076.910          23.000      429209.812       -4471.440
J02  37636579.238          20.000           0.081       -1812.225
R18  22663502.785          24.000           0.000         963.729
R13  22777453.598          18.000           0.000        1734.881
E09  24391173.142          24.000      268499.520       -2892.886
R11  23498770.141           9.000           0.000       -3571.766
R24  21518901.776          35.000           0.000       -5683.831
C30  26393915.972          42.000           0.000       -4819.886
R17  20246485.151          28.000           0.000       -2316.929
R03  22750743.589          19.000           0.000        -961.364
C39  36161291.559          29.000           0.000       -1871.992
C06  36232280.914          36.000       51621.445       -1523.389
C08  36316842.473          26.000      106428.997       -1105.207
C46  23317922.738          31.000           0.000        -220.426
C09  37176418.201          21.000       20177.432       -1344.417
C10  40462479.009          12.000       37026.851       -2665.668
C13  36644682.614          28.000      100929.045       -1026.154
E05  25401635.014          28.000      105100.412       -1169.761
C16  36413535.734          38.000       73940.300       -1649.174
C35  24249675.299          33.000           0.000       -1470.648
C19  23694511.831          22.000       17019.018       -1312.584
C20  23533065.798          32.000       36492.036       -2607.577
C38  36262542.864          31.000           0.000       -1398.809
C36  25215192.585          33.000     -107283.191        1079.022
E36  23879134.519          30.000       39768.853       -1336.390
E04  27209477.671          19.000       34016.457       -3777.941
> 2023 07 24 08 50 54.000560   0 38
G15  21761304.362          25.000      382289.395       -3832.756
G18  20856284.894          34.000       29588.671        -882.878
G23  22480109.544          23.000      -16577.727         161.240
G05  23651196.917          20.000      363361.815       -3650.467
J03  36111315.556          27.000       21420.580       -1946.688
R02  21439130.300          37.000           0.000       -2446.066
G10  25287294.171          14.000           0.271         459.528
G12  25329141.001          12.000       -7777.196         107.426
C29  23583209.084          21.000           0.000       -4032.868
G24  20330883.622          24.000      152480.863       -1566.759
C37  25194165.442          24.000           0.000       -2920.361
G29  24430926.821          14.000      433682.218       -4474.451
G32  25501784.582          17.000           0.000         179.492
J02  37636928.497          19.000        1807.500       -1807.527
R18  22663324.109          29.000           0.000         962.105
R13  22777128.324          17.000           0.000        1730.577
C36  25215004.316          28.000           0.000        1077.016
E09  24391722.062          25.000      271393.908       -2898.052
R11  23499434.481          12.000           0.000       -3555.421
R24  21519956.745          30.000           0.000       -5684.193
C30  26394842.031          40.000           0.000       -4819.962
R17  20246917.752          23.000           0.000       -2317.615
R03  22750931.259          25.000           0.000        -959.578
C39  36161649.811          23.000           0.000       -1871.935
C06  36232570.813          28.000       53144.450       -1524.044
C08  36317053.827          25.000      107534.152       -1105.927
C46  23317965.009          30.000           0.000        -221.301
C09  37176673.025          25.000       21521.830       -1343.441
C10  40462991.954          10.000       39690.768       -2665.898
C13  36644880.177          20.000      101956.014       -1028.110
E05  25401857.760          26.000      106268.607       -1167.288
C16  36413857.111          39.000          -0.168       -1649.831
C35  24249953.207          33.000           0.000       -1471.674
C19  23694757.361          24.000       18332.315       -1313.407
C20  23533568.550          32.000       39098.568       -2605.562
C38  36262810.279          33.000           0.000       -1399.281
E36  23879388.144          34.000       41105.565       -1336.711
E04  27210194.474          17.000       37794.810       -3778.907
> 2023 07 24 08 50 55.000560   0 38
G15  21762037.955          27.000      386121.919       -3832.301
G18  20856457.575          34.000       30472.694        -884.808
G23  22480078.965          21.000      -16739.542         161.296
G05  23651889.737          23.000      367011.386       -3648.356
J03  36111684.301          32.000       23367.909       -1948.075
R02  21439586.884          35.000           0.000       -2445.813
G10  25287203.933          15.000        -460.433         460.913
G12  25329123.313          12.000       -7884.320         104.152
C29  23583985.547          21.000           0.000       -4036.852
G24  20331181.016          26.000      154047.624       -1566.964
C37  25194722.157          23.000           0.000       -2923.587
G29  24431777.033          16.000      438157.902       -4475.730
G32  25501746.508          12.000           0.047         175.734
J02  37637271.759          19.000        3616.478       -1810.885
R18  22663143.334          30.000           0.000         962.100
R13  22776800.051          17.000           0.000        1711.909
C36  25214797.459          29.000           0.000        1077.864
E09  24392271.882          23.000      274290.148       -2897.293
R11  23500106.316          13.000           0.000       -3546.613
R24  21521015.313          33.000           0.000       -5685.379
C30  26395767.490          41.000           0.000       -4819.573
R17  20247339.560          22.000           0.000       -2315.194
R03  22751115.932          24.000           0.000        -958.698
C39  36162007.163          26.000           0.000       -1869.637
C06  36232862.211          30.000       54668.516       -1524.369
C08  36317264.281          26.000      108640.437       -1106.958
C46  23318003.982          29.000           0.000        -223.366
C09  37176931.746          21.000       22865.567       -1344.479
C10  40463508.196           9.000       42361.181       -2673.134
C13  36645081.338          25.000      102983.972       -1029.001
E05  25402078.707          27.000      107437.890       -1170.428
C16  36414170.694          38.000        1649.909       -1650.405
C35  24250231.414          30.000           0.000       -1473.091
C19  23695001.991          25.000       19644.672       -1310.435
C20  23534073.400          35.000           0.757       -2606.740
C38  36263078.293          33.000           0.000       -1400.745
E36  23879639.370          29.000       42441.267       -1336.421
E04  27210915.175          15.000       41574.600       -3780.156
> 2023 07 24 08 50 56.000560   0 38
G15  21762771.247          26.000      389954.740       -3833.821
G18  20856627.857          31.000       31357.694        -885.168
G23  22480048.087          20.000      -16900.410         160.504
G05  23652584.656          14.000      370658.828       -3647.159
J03  36112053.046          24.000       25314.958       -1946.077
R02  21440044.967          36.000           0.000       -2445.477
G10  25287114.895          14.000        -924.399         465.800
G12  25329104.726           9.000       -7988.753         104.345
C29  23584761.409          23.000           0.000       -4034.591
G24  20331477.511          30.000      155614.546       -1567.086
C37  25195282.469          21.000           0.000       -2925.237
G29  24432627.544          15.000      442638.211       -4481.574
G32  25501725.823          17.000        -177.495         177.394
J02  37637614.422          19.000        5427.148       -1810.997
R18  22662959.861          31.000           0.000         960.355
R13  22776478.973          17.000           0.000        1718.869
C36  25214590.602          26.000           0.000        1078.303
E09  24392822.600          20.000      277189.848       -2902.778
R11  23500775.153          15.000           0.000       -3555.250
R24  21522077.177          35.000           0.000       -5686.123
C30  26396692.050          44.000           0.000       -4820.144
R17  20247770.362          29.000           0.000       -2318.510
R03  22751297.606          16.000           0.000        -962.203
C39  36162367.814          29.000           0.000       -1870.755
C06  36233154.209          38.000       56192.810       -1524.623
C08  36317477.733          22.000      109746.960       -1105.856
C46  23318046.852          30.000           0.000        -222.302
C09  37177192.565          27.000       24210.760       -1346.753
C10  40464022.940           9.000       45031.579       -2669.479
C13  36645279.501          28.000      104012.711       -1028.509
E05  25402298.155          29.000      108607.841       -1169.817
C16  36414486.675          37.000        3300.152       -1651.411
C35  24250516.817          32.000           0.000       -1471.980
C19  23695254.417          18.000       20953.920       -1308.754
C20  23534574.653          34.000        2607.821       -2605.258
C38  36263346.308          33.000           0.000       -1401.702
E36  23879891.795          25.000       43777.445       -1336.410
E04  27211635.277          16.000       45354.588       -3780.247
> 2023 07 24 08 50 57.000560   0 39
G15  21763505.139          29.000      393788.863       -3834.601
G18  20856799.338          27.000       32243.326        -885.997
G23  22480024.703          23.000      -17060.162         158.609
G05  23653282.573          15.000      374307.109       -3649.546
J03  36112421.491          27.000       27261.465       -1947.481
R02  21440512.643          37.000           0.000       -2445.452
G10  25287023.158          12.000       -1393.201         471.292
G12  25329088.237          10.000       -8092.942         104.016
C29  23585538.771          21.000           0.000       -4032.522
G24  20331774.006          28.000      157182.115       -1567.928
C37  25195841.282          23.000           0.000       -2924.152
G29  24433481.353          15.000      447122.206       -4483.732
G32  25501692.246          16.000        -351.482         170.033
J02  37637958.883          19.000        7238.089       -1810.949
R18  22662778.486          29.000           0.000         960.538
R13  22776157.895          15.000           0.000        1718.404
C36  25214382.846          26.000           0.000        1078.096
E09  24393376.017          26.000      280090.432       -2898.666
R11  23501441.892          16.000           0.000       -3553.479
R01  23199609.946          17.000           0.000       -3523.510
R24  21523140.541          33.000           0.000       -5685.742
C30  26397618.109          43.000           0.000       -4820.234
R17  20248205.660          26.000           0.000       -2322.429
R03  22751482.278          20.000           0.000        -962.915
C39  36162728.164          32.000           0.000       -1871.402
C06  36233447.107          39.000       57717.368       -1524.836
C08  36317689.687          25.000      110853.451       -1107.446
C46  23318086.125          29.000           0.000        -223.046
C09  37177453.684          30.000       25557.956       -1347.666
C10  40464536.784           9.000       47701.064       -2670.362
C13  36645476.764          27.000      105040.766       -1027.708
E05  25402519.702          24.000      109776.733       -1168.677
C16  36414801.757          37.000        4950.303       -1650.917
C35  24250802.819          33.000           0.000       -1472.989
C19  23695508.041          23.000       22262.119       -1309.280
C20  23535075.007          32.000        5215.112       -2605.369
C38  36263614.022          30.000           0.000       -1398.204
E36  23880145.719          27.000       45113.372       -1336.580
E04  27212356.278          16.000       49134.626       -3780.010
> 2023 07 24 08 50 58.000560   0 39
G15  21764239.031          25.000      397624.858       -3836.251
G18  20856964.824          30.000       33128.983        -885.872
G23  22479994.424          24.000      -17219.118         158.776
G05  23653976.893          17.000      377957.184       -3650.702
J03  36112789.636          30.000       29209.511       -1948.940
R02  21440971.925          37.000           0.000       -2446.070
G10  25286933.820          13.000       -1864.708         471.772
G12  25329072.048          10.000       -8193.509          97.237
C29  23586317.332          21.000           0.000       -4035.655
G24  20332068.702          28.000      158750.813       -1570.023
C37  25196399.496          20.000           0.000       -2922.466
G29  24434332.164          15.000      451604.787       -4480.728
G32  25501660.768          14.000        -521.755         170.436
J02  37638303.345          19.000        9049.572       -1810.849
R18  22662597.412          22.000           0.000         959.785
R13  22775835.918          15.000           0.000        1719.909
C36  25214175.390          23.000           0.000        1079.074
E09  24393927.935          26.000      282988.820       -2898.264
R11  23502100.836          16.000           0.000       -3546.368
R01  23200300.967           9.000           0.000       -3516.856
R24  21524204.205          33.000           0.000       -5685.821
C30  26398542.969          40.000           0.000       -4820.801
R17  20248646.655          30.000           0.000       -2323.850
R03  22751661.554          26.000           0.000        -963.382
C39  36163090.913          33.000           0.000       -1871.623
C06  36233745.700          41.000          -0.114       -1525.408
C08  36317902.539          24.000      111961.029       -1107.681
C46  23318124.798          27.000           0.000        -223.114
C09  37177713.604          29.000       26906.279       -1348.653
C10  40465049.729           9.000       50370.846       -2669.550
C13  36645674.328          27.000      106068.691       -1028.493
E05  25402743.946          30.000      110946.766       -1170.217
C16  36415117.739          38.000        6601.176       -1650.916
C35  24251092.118          35.000           0.000       -1473.654
C19  23695762.565          25.000       23573.036       -1310.759
C20  23535575.960          30.000        7822.259       -2607.440
C38  36263881.437          28.000           0.000       -1400.538
E36  23880399.643          20.000       46450.389       -1338.528
E04  27213077.878          18.000       52914.612       -3779.898
> 2023 07 24 08 50 59.000560   0 39
G15  21764973.822          24.000      401461.240       -3835.473
G18  20857130.909          25.000       34015.976        -887.751
G23  22479962.346          26.000      -17378.050         158.466
G05  23654667.315          16.000      381610.362       -3655.305
J03  36113160.779          26.000       31158.800       -1949.853
R02  21441436.304          39.000           0.000       -2446.432
G10  25286846.281          15.000       -2335.975         469.765
G12  25329054.960          11.000       -8287.346          89.276
C29  23587094.994          21.000           0.000       -4033.762
G24  20332362.498          26.000      160320.391       -1569.523
C37  25196960.107          22.000           0.000       -2922.096
G29  24435184.774          16.000      456084.438       -4477.783
G32  25501631.088          14.000        -693.028         172.042
J02  37638648.106          19.000       10860.590       -1810.953
R18  22662417.236          21.000           0.000         959.093
R13  22775510.044          14.000           0.000        1717.856
C36  25213968.833          24.000           0.000        1080.057
E09  24394478.654          28.000      285885.822       -2895.906
R11  23502764.276          14.000           0.000       -3547.715
R01  23200953.615          17.000           0.000       -3513.550
R24  21525268.768          33.000           0.000       -5686.361
C30  26399468.428          41.000           0.000       -4819.058
R17  20249086.750          28.000           0.000       -2324.572
R03  22751839.331          26.000           0.000        -966.433
C39  36163448.266          32.000           0.000       -1872.195
C06  36234038.597          40.000        1525.159       -1526.634
C08  36318117.191          26.000      113067.712       -1105.861
C46  23318163.471          27.000           0.000        -223.766
C09  37177974.124          27.000       28254.366       -1348.172
C10  40465567.171           9.000       53042.246       -2672.144
C13  36645873.690          27.000      107097.500       -1029.482
E05  25402968.791          30.000      112116.892       -1169.838
C16  36415434.919          37.000        8252.156       -1651.005
C35  24251375.122          33.000           0.000       -1474.082
C19  23696015.890          26.000       24884.152       -1310.852
C20  23536071.817          31.000       10429.508       -2608.029
C38  36264150.951          24.000           0.000       -1401.203
E36  23880653.568          27.000       47789.065       -1338.926
E04  27213798.279          18.000       56693.745       -3778.538
> 2023 07 24 08 51 00.000560   0 39
G15  21765709.213          26.000      405296.754       -3834.692
G18  20857297.893          32.000       34903.695        -887.990
G23  22479937.763          27.000      -17536.459         157.677
G05  23655363.732          16.000      385267.590       -3658.555
J03  36113531.023          27.000       33108.001       -1949.409
R02  21441891.089          39.000           0.000       -2446.506
G10  25286757.542          16.000       -2804.454         467.413
G12  25329039.371          10.000       -8373.177          80.228
C29  23587872.656          22.000           0.000       -4038.451
G24  20332657.494          27.000      161891.130       -1570.970
C37  25197530.912          25.000           0.000       -2924.805
G29  24436038.583          16.000      460562.307       -4477.254
G32  25501601.109          14.000        -865.371         171.914
J02  37638992.268          20.000       12671.793       -1811.668
R18  22662228.967          23.000           0.000         959.339
R13  22775186.868          14.000           0.000        1703.238
C36  25213762.575          27.000           0.000        1077.664
E09  24395028.173          27.000      288780.895       -2895.126
R11  23503429.816          13.000           0.000       -3529.926
R01  23201611.360          16.000           0.000       -3513.147
R24  21526328.534          37.000           0.000       -5686.778
C30  26400394.187          42.000           0.000       -4819.504
R17  20249528.644          28.000           0.000       -2325.614
R03  22752013.810          23.000           0.000        -963.237
C39  36163809.216          35.000           0.000       -1872.152
C06  36234331.194          39.000        3050.071       -1526.074
C08  36318331.242          23.000      114173.439       -1105.404
C46  23318199.446          28.000           0.000        -222.702
C09  37178236.442          29.000       29602.452       -1348.357
C10  40466085.512           9.000       55715.382       -2674.102
C13  36646073.351          27.000      108126.168       -1028.275
E05  25403195.434          30.000      113286.891       -1170.244
C16  36415753.299          38.000        9903.277       -1650.865
C35  24251659.625          34.000           0.000       -1475.178
C19  23696271.613          26.000       26194.593       -1310.450
C20  23536570.671          32.000       13036.937       -2605.196
C38  36264421.663          26.000           0.000       -1402.650
E36  23880908.691          30.000       49127.667       -1339.102
E04  27214521.679          19.000       60472.448       -3778.890
> 2023 07 24 08 51 01.000560   0 39
G15  21766444.304          27.000      409131.927       -3835.371
G18  20857463.978          37.000       35792.136        -888.557
G23  22479910.482          22.000      -17693.812         157.950
G05  23656064.048          16.000      388929.347       -3664.005
J03  36113900.367          23.000       35057.493       -1949.323
R02  21442353.669          42.000           0.000       -2446.288
G10  25286673.300          17.000       -3269.852         464.317
G12  25329027.679           9.000       -8449.103          69.980
C29  23588650.917          19.000           0.000       -4037.045
G24  20332952.790          25.000      163462.706       -1571.602
C37  25198100.518          25.000           0.000       -2926.359
G29  24436891.192          15.000      465038.472       -4472.841
G32  25501568.432          14.000       -1038.629         172.482
J02  37639336.130          20.000       14483.557       -1811.190
R18  22662050.890          21.000           0.000         959.442
R13  22774864.891           9.000           0.000        1697.557
C36  25213556.018          28.000           0.000        1077.938
E09  24395580.091          25.000      291676.605       -2898.051
R11  23504086.361          12.000           0.000       -3502.087
R01  23202276.000          15.000           0.000       -3511.855
R24  21527393.097          34.000           0.000       -5687.226
C30  26401320.246          41.000           0.000       -4819.364
R17  20249961.845          29.000           0.000       -2326.082
R03  22752196.384          22.000           0.000        -960.902
C39  36164172.564          37.000           0.000       -1872.414
C06  36234624.392          38.000        4575.293       -1525.009
C08  36318542.596          22.000      115278.914       -1106.983
C46  23318238.120          27.000           0.000        -223.583
C09  37178498.161          27.000       30950.649       -1348.130
C10  40466600.855           9.000       58385.253       -2673.414
C13  36646273.013          24.000      109154.430       -1028.184
E05  25403423.876          31.000      114457.876       -1171.137
C16  36416070.479          36.000       11554.758       -1649.467
C35  24251947.126          32.000           0.000       -1473.752
C19  23696525.237          29.000       27503.823       -1308.807
C20  23537068.327          31.000       15644.346       -2609.312
C38  36264692.376          26.000           0.000       -1401.376
E36  23881163.515          35.000       50466.385       -1339.131
E04  27215242.080          19.000       64250.819       -3778.365
> 2023 07 24 08 51 02.000560   0 39
G15  21767169.502          19.000      412966.375       -3832.573
G18  20857628.564          37.000          -0.555        -889.577
G23  22479885.299          27.000      -17851.753         157.910
G05  23656764.063          15.000      392597.693       -3676.582
J03  36114272.110          21.000       37005.950       -1947.848
R02  21442815.649          38.000           0.000       -2446.960
G10  25286586.061          17.000       -3735.173         464.619
G12  25329012.689           9.000       -8514.152          59.242
C29  23589427.679          20.000           0.000       -4038.450
G24  20333247.785          25.000      165035.045       -1572.597
C37  25198669.524          22.000           0.000       -2925.150
G29  24437734.808          15.000      469510.830       -4471.857
G32  25501533.056          13.000       -1211.424         171.210
J02  37639680.292          20.000       16294.460       -1810.973
R18  22661873.113          19.000           0.000         958.564
R13  22774542.913           9.000           0.000        1712.936
C36  25213349.761          26.000           0.000        1076.719
E09  24396131.709          25.000      294574.158       -2898.237
R11  23504737.210           9.000           0.000       -3497.616
R01  23202935.244          13.000           0.000       -3527.889
R24  21528467.853          34.000           0.000       -5687.936
C30  26402244.506          40.000           0.000       -4819.785
R17  20250394.445          26.000           0.000       -2327.137
R03  22752373.261          14.000           0.000        -960.141
C39  36164535.013          35.000           0.000       -1873.099
C06  36234916.090          39.000        6100.905       -1525.436
C08  36318755.449          22.000      116385.915       -1107.382
C46  23318279.191          27.000           0.000        -223.376
C09  37178758.981          27.000       32298.820       -1348.523
C10  40467117.398           9.000       61060.077       -2680.751
C13  36646471.176          26.000      110182.635       -1028.721
E05  25403651.418          28.000      115628.596       -1170.898
C16  36416387.060          37.000       13206.661       -1651.715
C35  24252233.128          33.000           0.000       -1474.515
C19  23696777.063          28.000       28812.919       -1309.459
C20  23537570.779          29.000       18251.941       -2606.122
C38  36264961.590          26.000           0.000       -1399.710
E36  23881419.537          36.000       51806.090       -1339.964
E04  27215962.481          19.000       68029.494       -3777.868
> 2023 07 24 08 51 03.000560   0 39
G15  21767888.404          18.000      416799.358       -3833.167
G18  20857798.846          35.000         888.928        -886.852
G23  22479861.316          25.000      -18010.276         158.544
G05  23657463.479          13.000      396270.360       -3666.948
J03  36114639.955          26.000       38953.549       -1948.501
R02  21443271.034          36.000           0.000       -2446.177
G10  25286498.222          18.000       -4197.174         460.091
G12  25329002.796           9.000       -8572.196          56.464
C29  23590205.041          20.000           0.000       -4036.696
G24  20333541.882          26.000      166608.620       -1574.099
C37  25199242.128          21.000           0.000       -2925.006
G29  24438582.322          14.000      473982.422       -4470.748
G32  25501499.179          13.000       -1383.998         172.348
J02  37640024.453          20.000       18105.402       -1811.009
R18  22661686.642          26.000           0.000         958.284
R13  22774222.735           9.000           0.000        1712.052
C36  25213143.204          27.000           0.000        1078.211
E09  24396683.328          25.000      297472.287       -2897.904
R11  23505387.160           9.000           0.000       -3475.708
R01  23203596.586          12.000           0.000       -3550.451
R24  21529542.909          35.000           0.000       -5688.629
C30  26403169.966          40.000           0.000       -4819.035
R17  20250828.245          26.000           0.000       -2328.499
R03  22752557.634          23.000           0.000        -961.256
C39  36164893.565          35.000           0.000       -1874.023
C06  36235209.886          40.000        7626.738       -1527.631
C08  36318969.800          20.000      117493.773       -1107.954
C46  23318320.263          27.000           0.000        -224.476
C09  37179019.201          27.000       33647.798       -1348.915
C10  40467635.139          10.000       63741.814       -2680.830
C13  36646671.137          22.000      111210.802       -1026.917
E05  25403873.564          29.000      116798.746       -1171.443
C16  36416707.538          37.000       14858.766       -1653.974
C35  24252507.438          29.000           0.000       -1478.131
C19  23697033.985          28.000       30123.031       -1310.904
C20  23538076.828          31.000       20859.685       -2606.738
C38  36265229.304          21.000           0.000       -1400.483
E36  23881676.459          34.000       53146.035       -1340.465
E04  27216681.084          18.000       71806.502       -3777.174
> 2023 07 24 08 51 04.000560   0 38
G15  21768616.301          18.000      420633.844       -3835.164
G18  20857967.629          27.000        1776.371        -888.899
G23  22479835.234          25.000      -18169.020         158.633
G05  23658154.500          14.000      399933.146       -3659.131
J03  36115013.197          22.000       40898.421       -1941.841
R02  21443713.827          37.000           0.000       -2446.313
G10  25286408.584          17.000       -4655.489         454.953
C29  23590981.503          20.000           0.000       -4035.408
G24  20333839.876          20.000      168183.143       -1575.912
C37  25199810.534          21.000           0.000       -2925.836
G29  24439433.432          13.000      478454.605       -4472.194
G32  25501465.303          13.000       -1557.115         174.835
J02  37640368.615          20.000       19916.426       -1811.537
R18  22661504.668          28.000           0.000         956.758
R13  22773909.152           9.000           0.000        1717.954
C36  25212935.748          27.000           0.000        1079.673
E09  24397235.245          22.000      300369.946       -2897.373
R11  23506034.113           9.000           0.000       -3449.049
R01  23204259.127          10.000           0.000       -3569.611
R24  21530613.768          36.000           0.000       -5689.087
C30  26404098.723          41.000           0.000       -4818.028
R17  20251265.042          28.000           0.000       -2329.741
R03  22752737.809          27.000           0.000        -962.058
C39  36165252.117          31.000           0.000       -1873.540
C06  36235502.184          36.000        9152.903       -1522.482
C08  36319182.053          29.000      118601.520       -1108.237
C46  23318365.232          27.000           0.000        -225.840
C09  37179277.022          26.000       34996.699       -1349.031
C10  40468153.780           9.000       66424.600       -2685.829
C13  36646871.998          23.000      112236.647       -1026.206
E05  25404098.708          26.000      117971.798       -1173.596
C16  36417025.918          38.000       16511.270       -1651.352
C35  24252794.340          31.000           0.000       -1476.797
C19  23697290.307          23.000       31433.897       -1310.150
C20  23538576.583          32.000       23467.659       -2609.236
C38  36265497.918          28.000           0.000       -1402.913
E36  23881930.384          30.000       54486.351       -1340.169
E04  27217401.485          18.000       75584.300       -3778.882
> 2023 07 24 08 51 05.000560   0 38
G15  21769346.295          28.000      424469.298       -3835.969
G18  20858136.113          31.000        2666.408        -891.749
G23  22479805.255          28.000      -18327.564         157.811
G05  23658854.816          14.000      403589.482       -3654.241
J03  36115383.440          29.000       42842.433       -1946.562
R02  21444164.116          36.000           0.000       -2444.925
G10  25286319.545          16.000       -5109.403         456.036
C29  23591759.165          20.000           0.000       -4040.361
G24  20334135.471          21.000      169759.206       -1576.667
C37  25200373.844          20.000           0.000       -2926.074
G29  24440291.438          13.000      482927.243       -4471.188
G32  25501433.225          13.000       -1731.820         172.438
J02  37640714.276          18.000       21727.331       -1807.421
R18  22661324.793          26.000           0.000         955.728
R13  22773583.278           9.000           0.000        1729.520
C36  25212726.193          22.000           0.000        1077.222
E09  24397787.463          22.000      303267.594       -2898.071
R11  23506674.769           9.000           0.000       -3430.077
R01  23204925.266           9.000           0.000       -3563.077
R24  21531681.029          33.000           0.000       -5689.504
C30  26405026.580          37.000           0.000       -4818.704
R17  20251703.639          28.000           0.000       -2331.077
R03  22752909.590          27.000           0.000        -963.102
C39  36165610.969          34.000           0.000       -1873.263
C06  36235792.683          38.000       10679.461       -1526.871
C08  36319394.906          27.000      119709.834       -1108.563
C46  23318408.402          28.000           0.000        -226.965
C09  37179535.443          32.000       36346.167       -1349.485
C10  40468676.019           9.000       69111.874       -2688.816
C13  36647071.660          25.000      113263.411       -1027.510
E05  25404324.752          24.000      119144.547       -1172.360
C16  36417342.798          39.000       18164.050       -1652.756
C35  24253084.539          35.000           0.000       -1477.500
C19  23697538.236          23.000       32744.625       -1310.026
C20  23539076.337          30.000       26075.817       -2608.072
C38  36265767.432          30.000           0.000       -1404.226
E36  23882184.907          32.000       55826.650       -1341.304
E04  27218122.786          17.000       79363.041       -3779.880
> 2023 07 24 08 51 06.000560   0 38
G15  21770077.189          26.000      428305.658       -3836.605
G18  20858306.395          30.000        3558.739        -893.160
G23  22479773.477          24.000      -18485.748         158.188
G05  23659551.234          15.000      407242.828       -3654.490
J03  36115754.583          27.000       44790.982       -1949.692
R02  21444626.096          29.000           0.000       -2446.332
G10  25286234.404          15.000       -5562.874         447.634
C29  23592540.124          19.000           0.000       -4038.187
G24  20334434.664          19.000      171337.593       -1579.181
C37  25200937.454          21.000           0.000       -2927.813
G29  24441147.945          13.000      487395.374       -4467.556
G32  25501401.147          13.000       -1907.097         179.583
J02  37641058.138          17.000       23538.086       -1816.126
R18  22661148.815          21.000           0.000         956.746
R13  22773259.802           9.000           0.000        1724.583
C36  25212519.636          28.000           0.000        1076.551
E09  24398339.081          25.000      306165.411       -2896.727
R11  23507313.927           9.000           0.000       -3426.430
R01  23205594.403           9.000           0.000       -3558.091
R24  21532744.093          36.000           0.000       -5689.912
C30  26405951.140          29.000           0.000       -4819.299
R17  20252138.937          29.000           0.000       -2331.422
R03  22753079.872          22.000           0.000        -962.612
C39  36165968.921          38.000           0.000       -1873.948
C06  36236085.280          40.000       12206.044       -1527.851
C08  36319605.061          23.000      120818.951       -1108.706
C46  23318450.673          20.000           0.000        -228.894
C09  37179795.063          25.000       37696.245       -1350.177
C10  40469196.458           9.000       71803.587       -2696.878
C13  36647263.827          27.000      114289.290       -1025.884
E05  25404550.496          30.000      120316.586       -1173.160
C16  36417656.681          38.000       19816.881       -1654.481
C35  24253365.444          25.000           0.000       -1478.157
C19  23697790.961          25.000       34056.322       -1312.142
C20  23539579.388          31.000       28683.444       -2608.037
C38  36266036.645          28.000           0.000       -1402.872
E36  23882438.832          35.000       57168.272       -1342.276
E04  27218845.286          16.000       83142.476       -3779.568
> 2023 07 24 08 51 07.000560   0 38
G15  21770805.085          27.000      432142.504       -3836.903
G18  20858476.977          41.000        4452.870        -894.617
G23  22479740.799          27.000      -18644.086         158.581
G05  23660238.058          16.000      410896.863       -3653.289
J03  36116121.829          25.000       46742.105       -1951.963
R02  21445078.782          32.000           0.000       -2446.566
G10  25286148.963          15.000       -6009.995         448.956
C29  23593317.486          18.000           0.000       -4039.801
G24  20334734.156          27.000      172915.670       -1578.255
C37  25201500.164          25.000           0.000       -2927.966
G29  24441994.859          15.000      491864.312       -4470.236
G32  25501365.472          13.000       -2087.843         182.679
J02  37641403.499          16.000       25353.452       -1814.808
R18  22660973.436          21.000           0.000         953.207
C36  25212313.678          25.000           0.000        1075.088
E09  24398891.299          22.000      309062.579       -2898.872
R11  23507951.285           9.000           0.000       -3416.059
R01  23206261.141           9.000           0.000       -3565.202
R24  21533803.559          36.000           0.000       -5690.592
C30  26406876.300          27.000           0.000       -4818.385
R17  20252574.536          29.000           0.000       -2332.113
R03  22753256.150          19.000           0.000        -961.655
C39  36166327.173          38.000           0.000       -1873.201
C06  36236379.377          38.000       13732.907       -1525.196
C08  36319813.716          20.000      121926.714       -1106.397
C46  23318500.438          21.000           0.000        -228.054
C09  37180051.386          27.000       39046.948       -1350.273
C10  40469716.298           9.000       74503.414       -2702.203
C13  36647458.692          29.000      115315.766       -1027.654
E05  25404781.336          25.000      121491.601       -1173.706
C16  36417976.260          37.000       21469.996       -1653.131
C35  24253643.352          32.000           0.000       -1478.803
C19  23698038.889          24.000       35368.763       -1313.240
C20  23540082.740          25.000       31291.947       -2608.856
C38  36266309.456          30.000           0.000       -1400.939
E36  23882696.054          39.000           0.264       -1343.789
E04  27219564.787          15.000       86921.505       -3778.430
C02  37436679.426          36.000      174109.478       -1881.936
> 2023 07 24 08 51 08.000560   0 37
G15  21771533.881          29.000      435978.198       -3833.835
G18  20858648.758          39.000        5346.566        -892.162
G23  22479705.124          26.000      -18803.691         160.794
G05  23660935.075          18.000      414549.672       -3651.921
J03  36116494.771          30.000       48693.177       -1950.003
R02  21445539.264          31.000           0.000       -2445.027
G10  25286062.923          12.000       -6457.275         442.709
C29  23594094.848          17.000           0.000       -4039.107
G24  20335031.850          25.000      174492.713       -1576.545
C37  25202061.076          24.000           0.000       -2925.695
G29  24442843.272          16.000      496330.942       -4460.233
G32  25501325.899          13.000       -2274.713         190.858
J02  37641747.960          15.000       27164.947       -1809.040
R18  22660788.164          23.000           0.000         956.280
C36  25212105.922          28.000           0.000        1079.800
E09  24399443.817          23.000      311958.364       -2894.856
R01  23206931.477           9.000           0.000       -3560.750
R24  21534864.525          32.000           0.000       -5689.021
C30  26407797.562          30.000           0.000       -4816.391
R17  20253008.635          27.000           0.000       -2329.442
R03  22753421.635          22.000           0.000        -962.934
C39  36166683.626          38.000           0.000       -1870.989
C06  36236672.274          39.000       15256.533       -1523.483
C08  36320028.667          21.000      123032.939       -1104.294
C46  23318548.405          25.000           0.000        -227.527
C09  37180308.308          26.000       40396.839       -1349.329
C10  40470238.537           9.000       77208.487       -2703.734
C13  36647653.557          29.000      116342.429       -1024.269
E05  25405006.780          24.000      122663.753       -1169.737
C16  36418292.840          36.000       23120.254       -1650.251
C35  24253923.958          34.000           0.000       -1475.983
C19  23698288.616          26.000       36680.276       -1309.840
C20  23540583.693          28.000       33899.511       -2606.146
C38  36266578.670          30.000           0.000       -1398.804
E36  23882951.777          37.000        1339.533       -1340.575
E04  27220281.291          16.000       90696.487       -3771.162
C02  37437040.376          36.000      175990.787       -1877.460
> 2023 07 24 08 51 09.000560   0 38
G15  21772263.576          26.000      439811.255       -3832.561
G18  20858822.338          37.000        6238.905        -894.493
G23  22479668.250          27.000      -18965.179         161.773
G05  23661632.393          19.000      418201.148       -3651.681
J03  36116870.111          32.000       50642.904       -1948.734
R02  21445993.149          30.000           0.000       -2443.936
G10  25285976.283          10.000       -6901.021         446.179
C29  23594871.910          16.000           0.000       -4041.362
G24  20335329.245          22.000      176068.085       -1573.896
C37  25202621.988          19.000           0.000       -2927.813
G29  24443701.578          15.000      500794.308       -4466.736
G32  25501292.922          11.000       -2471.229         201.067
J02  37642091.822          15.000       28974.723       -1808.660
R18  22660609.188          26.000           0.000         955.082
R13  22772265.690          19.000           0.000        1732.310
C36  25211898.466          27.000           0.000        1079.883
E09  24399996.334          23.000      314852.663       -2893.447
R01  23207594.618          10.000           0.000       -3545.282
R24  21535927.889          37.000           0.000       -5687.985
C30  26408723.321          34.000           0.000       -4815.249
R17  20253437.039          23.000           0.000       -2329.623
R03  22753604.509          20.000           0.000        -964.095
C39  36167044.576          36.000           0.000       -1871.126
C06  36236963.972          37.000       16780.975       -1525.532
C08  36320243.619          22.000      124136.259       -1102.532
C46  23318594.873          22.000           0.000        -225.538
C09  37180568.828          29.000       41744.822       -1347.916
C10  40470761.375           9.000       79913.413       -2703.382
C13  36647848.722          23.000      117366.119       -1024.146
E05  25405225.328          30.000      123833.117       -1169.278
C16  36418609.122          36.000       24770.720       -1650.279
C35  24254208.761          30.000           0.000       -1477.096
C19  23698542.540          24.000       37989.121       -1308.734
C20  23541081.648          29.000       36504.377       -2604.341
C38  36266847.584          28.000           0.000       -1397.754
E36  23883203.902          33.000        2680.019       -1342.568
E04  27221000.793          14.000       94468.076       -3772.451
C02  37437401.626          36.000      177865.454       -1872.852
> 2023 07 24 08 51 10.000560   0 37
G15  21772992.371          26.000      443644.444       -3834.618
G18  20858991.721          33.000        7132.480        -893.899
G23  22479636.771          20.000      -19126.611         160.006
G05  23662329.110          20.000      421852.875       -3647.891
J03  36117245.751          33.000       52591.742       -1950.095
R02  21446446.735          32.000           0.000       -2445.549
G10  25285889.043           9.000       -7346.456         447.338
C29  23595649.572          13.000           0.000       -4039.027
G24  20335627.238          22.000      177641.557       -1573.920
C37  25203182.900          22.000           0.000       -2927.262
G29  24444560.183          15.000      505265.160       -4472.475
G32  25501259.046          11.000       -2672.425         201.296
J02  37642434.485          15.000       30779.772       -1806.369
R18  22660425.715          28.000           0.000         953.145
R13  22771684.093          12.000           0.000        1783.457
C36  25211689.511          27.000           0.000        1080.646
E09  24400547.952          20.000      317748.716       -2896.256
R01  23208253.862          12.000           0.000       -3525.357
R24  21536989.454          39.000           0.000       -5689.195
C30  26409651.779          28.000           0.000       -4816.350
R17  20253873.836          25.000           0.000       -2332.779
R03  22753787.082          19.000           0.000        -964.276
C39  36167408.524          37.000           0.000       -1875.083
C06  36237257.768          37.000       18308.077       -1527.069
C08  36320454.972          23.000      125239.956       -1105.617
C46  23318641.341          24.000           0.000        -226.104
C09  37180827.249          29.000       43092.747       -1349.843
C10  40471285.112           9.000       82616.596       -2704.999
C13  36648047.485          25.000      118391.759       -1028.641
E05  25405442.978          27.000      125003.035       -1172.505
C16  36418926.902          38.000          -0.006       -1653.728
C35  24254490.266          26.000           0.000       -1479.230
C19  23698794.066          21.000       39298.416       -1310.024
C20  23541579.004          29.000       39108.684       -2605.419
C38  36267115.299          31.000           0.000       -1401.029
E36  23883461.124          32.000        4022.375       -1343.306
E04  27221720.895          13.000       98241.636       -3775.183
