     3.02           OBSERVATION DATA    M (MIXED)           RINEX VERSION / TYPE
ANDROID_RINEX       UNKN                2023-07-28 16:08:49 PGM / RUN BY / DATE
Generated by Rokubun's android_rinex program                COMMENT
Four doubts or inquiries, reach us at info@rokubun.cat      COMMENT
                                                            MARKER NAME
LU                  LSGI                                    OBSERVER / AGENCY
Samsung Note8       mobiles             Android7.0          REC # / TYPE / VERS
UNKN                UNKN                                    ANT # / TYPE
        0.0000        0.0000        0.0000                  APPROX POSITION XYZ
        0.0000        0.0000        0.0000                  ANTENNA: DELTA H/E/N
G    4 C1C S1C L1C D1C                                      SYS / # / OBS TYPES
R    4 C1C S1C L1C D1C                                      SYS / # / OBS TYPES
E    4 C1C S1C L1C D1C                                      SYS / # / OBS TYPES
C    4 C1I S1I L1I D1I                                      SYS / # / OBS TYPES
J    4 C1C S1C L1C D1C                                      SYS / # / OBS TYPES
  2023    07    25    09    19    22.305461                 TIME OF FIRST OBS
                                                            END OF HEADER
> 2023 07 25 09 19 22.305461   0 29
G10  24155563.252          25.000           0.000       -1248.798
G18  20517401.898          30.000           0.000       -4184.596
G23  21527603.850          33.000           0.000       -1946.133
G24  20259933.540          37.000           0.000       -4907.693
J03  35966966.387          34.000           0.000       -4135.894
G32  24602650.639          25.000           0.000       -2179.478
R14  21494729.811          34.000           0.000        -562.918
R02  23624776.511          25.000           0.000       -5174.027
R18  20516163.758          23.000           0.000       -6060.073
R17  22788701.213          20.000           0.000       -8152.209
R03  21368892.527          29.000           0.000       -4370.303
R04  22042930.900          25.000           0.000       -3038.742
C06  35948402.639          30.000           0.000       -3794.129
C08  35849817.088          33.000           0.000       -3226.915
C09  36827400.421          23.000           0.000       -3589.095
R19  21202679.194          26.000           0.000       -2921.035
C13  36136430.370          40.000           0.000       -3093.729
C16  36177860.488          31.000           0.000       -3907.943
C20  23136751.560          35.000           0.000       -2997.748
C23  25042934.237          24.000           0.000       -5455.151
C29  24317431.992          22.000           0.000       -4205.255
C30  24157158.747          23.000           0.000       -6238.239
C38  35917699.394          28.000           0.000       -3572.058
C39  36003696.959          28.000           0.000       -4081.279
E12  24426366.978          25.000           0.000       -3102.772
G25  24861238.423          26.000           0.000       -1350.607
E19  24836077.741          38.000           0.000       -4550.407
G15  22300516.474          30.000           0.000       -5927.806
J02  37401906.499          28.000           0.000       -3801.051
> 2023 07 25 09 19 23.305461   0 32
G10  24155410.357          22.000           0.000         753.022
G18  20517816.811          29.000           0.000       -2176.457
G23  21527565.477          30.000           0.000          57.355
G24  20260482.460          34.000           0.000       -2903.484
J03  35967364.512          29.000           0.000       -2132.289
G32  24602682.417          19.000           0.000        -175.941
C32  23647613.798          31.000           0.000       -2491.090
R14  21494448.306          37.000           0.000        1466.857
R02  23625339.821          20.000           0.000       -3122.908
R18  20516806.513           9.000           0.000       -3953.108
R17  22789670.742          16.000           0.000       -6180.891
R03  21369312.836          26.000           0.000       -2331.909
R04  22043159.941          22.000           0.000        -963.498
C06  35948746.201          18.000           0.000       -1804.344
C08  35850052.725          30.000           0.000       -1240.414
C09  36827724.197          13.000           0.000       -1594.115
R19  21202866.564          20.000           0.000        -823.914
C13  36136642.323          30.000           0.000       -1111.565
C16  36178233.730          21.000           0.000       -1919.043
C20  23136948.824          29.000           0.000       -1012.111
C23  25043688.515          17.000           0.000       -3475.067
C29  24317795.341           9.000           0.000       -2233.327
C30  24157977.780          19.000           0.000       -4249.329
C38  35917995.589          26.000           0.000       -1583.192
C39  36004095.983          19.000           0.000       -2093.881
C27  26541178.824          24.000           0.000       -4606.397
E12  24426569.638          28.000           0.000       -1094.830
G25  24861078.034          19.000           0.000         662.781
E19  24836561.007          36.000           0.000       -2545.238
C37  22831130.537          36.000           0.000        -878.371
G15  22301255.162          25.000           0.000       -3927.456
J02  37402247.963          20.000           0.000       -1803.440
> 2023 07 25 09 19 24.305461   0 33
G10  24155263.759          22.000           0.262         750.118
G12  24324025.927          18.000           0.000         356.930
C39  36004499.204          27.000           0.000       -2103.338
G18  20518227.227          27.000           0.090       -2175.494
G23  21527535.797          31.000           0.394          54.703
G24  20261027.183          39.000           0.584       -2907.150
J03  35967763.835          29.000           0.362       -2133.960
G32  24602712.397          19.000          -0.193        -180.963
C32  23648002.628          31.000          -0.298       -2479.977
R14  21494176.095          41.000           0.000        1463.595
R02  23625917.221           9.000           0.000       -3112.964
C37  22831273.238          23.000           0.000        -865.971
R18  20517536.808           9.000           0.000       -3949.561
R17  22790830.939           9.000           0.000       -6183.269
R03  21369745.736          29.000           0.000       -2334.865
R04  22043367.397           9.000           0.000        -961.909
C06  35949105.952          13.000           0.329       -1797.524
C08  35850286.863          29.000           0.097       -1242.180
C09  36828017.394          24.000           0.305       -1605.941
R19  21203018.259          16.000           0.000        -827.363
C13  36136856.075          30.000          -0.140       -1111.785
C16  36178612.368          20.000           0.113       -1920.460
C20  23137141.890          27.000          -0.027       -1013.064
C23  25044340.864          22.000           0.306       -3477.946
C29  24318252.524          12.000           0.301       -2234.462
C30  24158794.115          29.000           0.079       -4246.787
C38  35918304.675          23.000           0.185       -1590.148
C27  26542056.317          22.000           0.129       -4615.209
E12  24426778.293          33.000           0.606       -1097.069
G25  24860954.220           9.000           0.172         664.932
E19  24837046.670          33.000           0.062       -2548.911
G15  22302003.444          23.000          -0.096       -3927.700
J02  37402591.824          27.000           0.116       -1807.366
> 2023 07 25 09 19 25.000001   0 35
G10  24155136.047          19.000           0.575         749.006
G12  24323963.570          17.000          -0.168         358.465
C39  36004755.526          27.000           0.000       -2112.187
G18  20518488.646          25.000           0.981       -2178.326
G23  21527470.742          36.000           0.939          52.626
G24  20261381.837          41.000          -0.351       -2908.353
J03  35968017.160          34.000           0.318       -2134.195
G32  24602709.698          15.000           0.022        -180.653
R14  21493956.047          41.000           0.000        1464.841
R02  23626277.272           9.000           0.000       -3107.189
C37  22831430.030          20.000           0.000        -876.797
R18  20518014.977           9.000           0.000       -3946.612
R13  21126307.665          22.000           0.000       -1970.340
R17  22791611.898           9.000           0.000       -6181.829
R03  21370022.145          26.000           0.000       -2338.726
R04  22043453.138           9.000           0.000        -961.160
C06  35949326.299          19.000           0.690       -1793.471
C08  35850425.067          40.000           0.406       -1243.574
C09  36828204.764          24.000           0.710       -1612.177
R19  21203112.993          16.000           0.000        -843.422
C13  36136977.491          38.000           0.240       -1112.403
C16  36178848.904          28.000           0.453       -1921.761
C20  23137249.815          36.000           0.254       -1014.665
C23  25044769.867          25.000           0.987       -3480.484
C29  24318519.040          12.000           0.272       -2227.756
C32  23648360.581          22.000           0.000       -2490.553
C30  24159332.842          29.000           0.757       -4246.591
C38  35918494.144          32.000           0.593       -1593.318
C27  26542646.908          22.000           0.914       -4613.378
E04  26235380.624          19.000           0.000        -952.649
E12  24426898.210          31.000           0.964       -1098.492
G25  24860838.200           9.000           0.033         664.819
E19  24837357.855          33.000           0.606       -2550.593
G15  22302490.907          19.000           0.580       -3931.560
J02  37402804.977          28.000           1.232       -1808.118
> 2023 07 25 09 19 26.000001   0 35
G10  24154998.143          16.000        -747.264         747.338
G12  24323887.423          10.000        -359.047         361.022
C39  36005159.647          27.000           0.000       -2109.426
G18  20518905.357          25.000        2180.912       -2181.653
G23  21527396.094          39.000           0.189          51.934
G24  20261934.655          40.000        2908.664       -2909.259
J03  35968419.182          36.000        2135.665       -2135.990
G32  24602743.275          17.000         183.921        -186.148
C32  23648848.643          22.000           0.000       -2481.392
R14  21493684.435          40.000           0.000        1463.003
R02  23626860.068           9.000           0.000       -3114.636
C37  22831604.809          26.000           0.000        -885.270
R18  20518770.454           9.000           0.000       -3947.090
R13  21126679.707          23.000           0.000       -1983.962
R17  22792757.405           9.000           0.000       -6180.379
R03  21370459.842          26.000           0.000       -2338.974
R04  22043631.514           9.000           0.000        -952.207
C06  35949681.553          24.000        1792.978       -1791.644
C08  35850662.503          43.000        1245.032       -1245.394
C09  36828512.951          27.000        1616.728       -1619.887
R19  21203281.477          14.000           0.000        -886.068
C13  36137190.044          37.000        1112.969       -1113.069
C16  36179224.544          29.000        1922.069       -1922.119
C20  23137443.781          37.000        1015.910       -1016.445
C23  25045429.710          26.000        3481.954       -3481.597
C29  24318943.546          15.000        2223.192       -2219.411
C30  24160146.179          27.000        4246.566       -4244.718
C38  35918808.926          32.000        1595.503       -1596.037
C27  26543530.996          22.000        4613.664       -4612.640
E04  26235521.826          12.000           0.215        -948.087
E12  24427109.264          30.000        1100.640       -1100.437
G25  24860715.285           9.000        -669.728         669.980
E19  24837843.219          32.000        2550.115       -2549.338
G15  22303237.990          16.000        3931.577       -3929.997
J02  37403149.438          28.000        1809.071       -1808.862
> 2023 07 25 09 19 27.000001   0 35
G10  24154857.540          17.000       -1492.301         744.699
G12  24323817.871          15.000        -718.281         358.422
C39  36005563.167          28.000           0.000       -2112.603
G18  20519324.467          26.000        4363.773       -2184.101
G23  21527366.414          40.000         -51.247          49.293
G24  20262488.371          40.000        5819.273       -2911.812
J03  35968824.201          34.000        4272.581       -2137.378
G32  24602781.049          18.000         372.773        -189.824
C32  23649335.806          23.000           0.028       -2484.674
R14  21493406.228          39.000           0.000        1460.458
R02  23627438.068           9.000           0.000       -3131.463
C37  22831782.286          27.000           0.000        -884.055
R18  20519513.639           9.000           0.000       -3946.466
R13  21127047.852          23.000           0.000       -1973.890
R17  22793903.812           9.000           0.000       -6180.414
R03  21370899.937          26.000           0.000       -2337.173
R04  22043808.692           9.000           0.000        -951.623
C06  35950036.807          26.000        3585.517       -1793.297
C08  35850901.437          42.000        2490.831       -1246.333
C09  36828823.836          25.000        3237.664       -1623.106
R19  21203453.857          16.000           0.000        -903.720
C13  36137403.196          36.000        2227.083       -1114.611
C16  36179599.584          29.000        3844.567       -1923.585
C20  23137638.646          36.000        2032.383       -1016.049
C23  25046091.352          26.000        6965.052       -3485.446
C29  24319364.754          24.000        4438.123       -2213.565
C30  24160959.516          27.000        8491.106       -4245.052
C38  35919123.708          33.000          -0.106       -1596.171
C27  26544414.784          19.000        9225.365       -4611.565
E04  26235632.450           9.000         947.487        -944.811
E12  24427318.819          30.000        2201.438       -1102.285
G25  24860590.571           9.000       -1334.397         662.389
E19  24838329.782          32.000          -0.646       -2550.466
G15  22303991.068          15.000        7860.014       -3928.741
J02  37403493.300          28.000        3617.652       -1808.257
> 2023 07 25 09 19 28.000001   0 36
G10  24154720.235          17.000       -2236.125         743.434
C20  23137834.710          33.000           0.000       -1018.035
G12  24323751.317          16.000       -1075.677         355.468
C39  36005970.885          27.000           0.000       -2113.174
G18  20519741.179          24.000        6548.793       -2185.367
G23  21527359.819          39.000        -102.052          50.045
G24  20263042.388          40.000        8731.100       -2912.673
J03  35969226.523          32.000           0.258       -2138.515
G32  24602818.823          19.000         563.425        -191.117
C32  23649814.274          24.000        2485.241       -2486.965
R14  21493140.611          39.000           0.000        1461.039
R02  23628021.164           9.000           0.000       -3163.888
C37  22831955.866          26.000           0.000        -882.639
R18  20520249.630           9.000           0.000       -3946.693
R13  21127429.188          22.000           0.000       -1962.153
G25  24860802.525          22.000         942.653         650.476
R17  22795053.516           9.000           0.000       -6181.093
R03  21371333.437          25.000           0.000       -2336.598
R04  22043988.268           9.000           0.000        -951.066
C06  35950392.061          26.000        5379.187       -1794.201
C08  35851142.471          42.000           0.222       -1246.905
C09  36829134.421          25.000        4862.125       -1625.916
R19  21203627.437          17.000           0.000        -907.663
C13  36137621.445          36.000           0.294       -1114.875
C16  36179972.826          27.000        5768.644       -1924.159
C23  25046755.092          25.000       10449.944       -3484.598
C46  24541804.762          28.000           0.000        1183.616
C29  24319784.164          25.000        6649.991       -2211.540
C30  24161771.654          26.000       12736.520       -4246.140
C38  35919432.794          32.000        1596.888       -1597.748
C27  26545298.872          21.000       13838.428       -4613.485
E04  26235821.319           9.000        1896.916        -956.256
E12  24427529.573          31.000        3303.920       -1103.184
E19  24838814.846          32.000        2551.405       -2553.090
G15  22304739.650          16.000       11789.299       -3931.180
J02  37403836.863          28.000        5426.178       -1809.840
> 2023 07 25 09 19 29.000001   0 36
G10  24154581.431          18.000       -2978.998         742.574
C20  23138022.980          35.000           0.000       -1017.791
G12  24323688.061          16.000       -1432.974         359.127
C39  36006376.504          29.000           0.000       -2113.494
G18  20520160.289          25.000        8735.422       -2187.161
G23  21527357.121          40.000        -152.279          50.730
G24  20263597.903          40.000       11643.636       -2910.481
J03  35969625.546          31.000        2138.699       -2138.704
G32  24602854.498          19.000         754.024        -190.149
C32  23650291.544          23.000        4973.156       -2488.074
R14  21492871.098          39.000           0.000        1459.683
R02  23628609.057           9.000           0.000       -3179.174
C37  22832122.550          26.000           0.000        -882.661
R18  20520990.717           9.000           0.000       -3945.563
R13  21127792.836          20.000           0.000       -1957.501
G25  24860679.310          20.000         290.836         651.148
R17  22796195.126           9.000           0.000       -6181.223
C29  24320272.226          24.000           0.000       -2217.276
R03  21371780.128          21.000           0.000       -2335.896
R04  22044168.743           9.000           0.000        -949.997
C06  35950743.418          24.000        7174.042       -1795.146
C08  35851379.606          41.000        1247.315       -1246.489
C09  36829443.507          23.000        6486.900       -1624.197
R19  21203801.617          16.000           0.000        -904.048
C13  36137834.598          38.000        1114.982       -1113.428
C16  36180344.269          24.000        7692.909       -1925.056
C23  25047421.831          25.000       13935.716       -3485.726
C46  24541611.396          24.000          -0.435        1183.424
C30  24162585.590          27.000       16983.298       -4247.352
C38  35919735.884          33.000        3193.729       -1596.120
C27  26546185.658          20.000       18451.926       -4614.641
E04  26235999.096           9.000        2854.560        -956.792
E12  24427739.128          32.000        4407.926       -1103.801
E19  24839301.110          33.000        5103.972       -2554.678
G15  22305493.628          16.000       15720.634       -3932.044
J02  37404180.125          28.000        7235.502       -1810.809
> 2023 07 25 09 19 30.000001   0 36
G10  24154442.028          18.000       -3720.961         741.086
C20  23138219.044          32.000           0.000       -1018.012
G12  24323624.205          16.000       -1792.732         359.969
C39  36006783.023          21.000           0.000       -2110.850
G18  20520579.398          32.000       10923.030       -2188.061
G23  21527352.924          37.000        -201.523          49.066
G24  20264153.718          42.000       14557.232       -2915.522
J03  35970045.855          32.000        4278.955       -2139.185
G32  24602890.473          20.000         945.052        -192.753
C32  23650766.715          24.000        7459.962       -2487.852
R14  21492584.796          36.000           0.000        1459.325
C37  22832285.638          29.000           0.000        -883.182
R18  20521727.906           9.000           0.000       -3946.788
R13  21128153.187          19.000           0.000       -1954.129
G25  24860556.995          21.000        -359.846         648.550
R17  22797349.626           9.000           0.000       -6179.200
C29  24320619.685          18.000           0.000       -2233.798
R03  21372206.432          26.000           0.000       -2337.332
R04  22044334.228           9.000           0.000        -949.613
C06  35951095.075          24.000        8969.528       -1795.345
C08  35851617.342          39.000        2494.786       -1248.313
C09  36829754.691          25.000        8111.264       -1623.906
R19  21203970.999          18.000           0.000        -896.980
C13  36138052.247          41.000        2230.243       -1116.421
C16  36180715.412          23.000        9619.040       -1926.756
C23  25048082.273          28.000       17421.544       -3485.543
C46  24541378.157          25.000       -1183.681        1182.801
C30  24163401.026          25.000       21229.845       -4247.178
C38  35920042.572          29.000        4790.181       -1596.306
E33  24172133.380          20.000           0.000       -3909.521
C27  26547073.943          16.000       23066.232       -4614.018
E04  26236181.669           9.000        3812.483        -959.774
E12  24427947.184          27.000        5511.896       -1105.832
E19  24839786.174          32.000        7657.087       -2554.814
G15  22306236.814          25.000       19652.955       -3932.655
J02  37404523.087          24.000        9045.711       -1814.229
> 2023 07 25 09 19 31.000001   0 36
G10  24154300.526          18.000       -4458.109         736.941
C20  23138418.106          28.000           0.000       -1016.379
G12  24323558.851          16.000       -2149.858         355.732
C39  36007194.938          27.000           0.000       -2112.187
G18  20520998.808          36.000       13110.977       -2186.257
G23  21527347.527          38.000        -252.447          54.032
G24  20264708.334          42.000       17470.505       -2911.945
J03  35970450.275          31.000        6417.630       -2137.644
G32  24602930.346          19.000        1138.433        -193.095
C32  23651244.584          29.000        9947.201       -2485.927
R14  21492318.880          28.000           0.000        1461.749
C37  22832441.829          23.000           0.000        -883.052
R18  20522469.893           9.000           0.000       -3945.678
R13  21128515.336          18.000           0.000       -1963.456
G25  24860435.579          13.000       -1006.255         645.391
R17  22798497.232           9.000           0.000       -6177.750
C29  24321042.393          13.000           0.000       -2209.267
R03  21372638.733          31.000           0.000       -2335.670
R04  22044509.607           9.000           0.000        -944.067
C06  35951441.335          29.000       10764.767       -1795.308
C08  35851853.578          38.000        3741.379       -1245.382
C09  36830066.476          22.000        9732.048       -1618.958
R19  21204138.883          23.000           0.000        -896.774
C13  36138267.498          42.000        3344.265       -1112.273
C16  36181090.152          24.000       11545.151       -1924.975
C23  25048743.616          29.000       20908.099       -3486.429
C46  24541148.816          23.000       -2366.108        1181.717
C30  24164212.564          26.000       25477.951       -4248.169
C38  35920348.360          26.000        6386.124       -1595.988
E33  24172894.553          15.000           0.776       -3904.861
C27  26547958.930          24.000       27680.655       -4615.024
E04  26236365.742          10.000        4772.129        -958.493
E12  24428155.540          34.000        6617.590       -1104.659
E19  24840270.938          31.000       10207.248       -2548.791
G15  22306981.498          27.000       23586.171       -3933.339
J02  37404865.151          22.000       10858.134       -1811.573
> 2023 07 25 09 19 32.000001   0 37
G05  24193025.017          19.000           0.000       -4110.518
G10  24154157.525          24.000       -5196.658         740.389
C20  23138616.569          31.000           0.000       -1016.517
G12  24323496.794          15.000       -2506.029         355.718
C39  36007597.859          26.000           0.000       -2110.221
G18  20521418.817          35.000          -0.259       -2188.046
G23  21527340.332          38.000        -303.941          51.528
G24  20265257.854          41.000       20382.940       -2915.920
J03  35970849.899          31.000        8554.160       -2136.668
G32  24602970.218          19.000        1328.452        -188.896
C32  23651723.652          25.000       12431.895       -2483.591
R14  21492046.369          29.000           0.000        1461.384
C37  22832597.122          26.000           0.000        -881.855
R18  20523209.181           9.000           0.000       -3945.316
R13  21128883.781          16.000           0.000       -1969.497
G25  24860316.261          12.000       -1650.868         645.345
R17  22799648.135           9.000           0.000       -6178.888
C29  24321471.995          15.000           0.000       -2214.880
R03  21373071.633          33.000           0.000       -2334.419
R04  22044848.372          24.000           0.000       -1080.991
E33  24173773.845          18.000           0.000       -3935.060
C06  35951788.795          30.000       12559.258       -1794.392
C08  35852092.513          34.000        4986.415       -1245.399
C09  36830376.461          22.000       11350.193       -1617.976
R19  21204312.763          20.000           0.000        -897.985
C13  36138476.753          38.000        4457.130       -1112.532
C16  36181460.096          27.000       13470.051       -1924.137
C27  26548899.979          18.000           0.000       -4618.648
C23  25049403.459          26.000       24392.829       -3485.008
C46  24540917.077          26.000       -3548.836        1181.992
C38  35920661.643          21.000           0.000       -1598.023
C30  24165023.502          25.000       29726.595       -4248.580
E04  26236548.615          12.000        5731.138        -959.029
E12  24428366.294          33.000        7721.178       -1103.619
E19  24840756.002          27.000       12756.126       -2549.985
G15  22307722.585          25.000       27519.326       -3933.337
J02  37405208.713          23.000       12666.441       -1804.810
> 2023 07 25 09 19 33.000001   0 37
G05  24193713.641          14.000           0.523       -4111.638
C39  36007977.996          27.000           0.000       -2111.698
G10  24154017.522          19.000       -5938.753         743.202
C20  23138806.338          34.000           0.000       -1017.536
G12  24323430.539          16.000       -2862.638         357.566
G18  20521834.330          36.000        2189.228       -2191.479
G23  21527339.433          38.000        -352.984          45.356
G24  20265811.571          34.000       23297.594       -2914.663
J03  35971250.721          35.000          -0.259       -2141.311
G32  24603004.394          19.000        1516.724        -188.077
C32  23652200.023          27.000       14915.876       -2485.019
R14  21491772.658          28.000           0.000        1458.968
C37  22832743.720          28.000           0.000        -883.607
R18  20523954.165           9.000           0.000       -3944.147
R13  21129255.824          17.000           0.000       -1967.639
G25  24860194.545          12.000       -2296.678         645.862
R17  22800797.539           9.000           0.000       -6177.205
C29  24321896.501          15.000           0.000       -2223.913
R03  21373506.033          31.000           0.000       -2335.549
R04  22044994.971          25.000           0.000       -1042.140
E33  24174362.337          20.000           0.160       -3936.778
C06  35952138.053          24.000       14353.928       -1796.109
C08  35852335.645          35.000        6232.935       -1248.289
C09  36830690.643          15.000       12967.697       -1617.363
R19  21204483.644          21.000           0.000        -898.910
C13  36138696.501          36.000        5572.854       -1117.110
C16  36181829.441          29.000       15394.190       -1925.448
C27  26549713.016          20.000           0.000       -4608.283
C23  25050063.002          27.000       27878.346       -3486.573
C46  24540685.637          23.000       -4730.222        1181.136
C38  35920966.532          28.000           0.000       -1598.520
C30  24165840.437          22.000       33975.878       -4249.803
E04  26236729.990          13.000        6687.952        -955.866
E12  24428582.744          34.000        8826.553       -1108.013
E19  24841241.966          27.000       15306.830       -2552.471
G15  22308463.672          31.000       31452.704       -3934.243
J02  37405553.174          28.000       14473.980       -1809.381
> 2023 07 25 09 19 34.000001   0 37
G05  24194516.785           9.000        4116.857       -4120.110
C39  36008383.315          25.000           0.000       -2118.936
G10  24153875.120          23.000       -6681.559         742.199
C20  23139002.402          36.000           0.000       -1020.526
G12  24323363.086          14.000       -3224.578         365.693
G18  20522256.138          35.000        4381.567       -2191.872
G23  21527334.936          28.000        -400.257          48.465
G24  20266364.987          36.000       26213.366       -2917.296
J03  35971659.338          34.000        2141.144       -2141.879
G32  24603038.271          17.000        1702.293        -183.733
C32  23652676.693          30.000       17402.645       -2488.119
R14  21491500.447          39.000           0.000        1455.218
C37  22832908.007          23.000           0.000        -887.808
R18  20524698.550           9.000           0.000       -3945.214
R13  21129620.671          16.000           0.000       -1962.763
G25  24859692.693          25.000       -2943.032         647.103
C30  24166732.319          17.000           0.000       -4239.251
R17  22801941.847           9.000           0.000       -6175.547
C29  24322323.706          14.000           0.000       -2238.148
R03  21373953.023          26.000           0.000       -2337.235
R04  22045192.234          25.000           0.000       -1069.915
E33  24175109.720          20.000        3931.504       -3926.896
C06  35952484.013          21.000       16152.076       -1800.572
C08  35852579.376          39.000           0.587       -1251.308
C09  36831001.228          17.000       14584.933       -1618.360
R19  21204650.029          21.000           0.000        -900.019
C13  36138908.754          39.000        6690.773       -1119.220
C16  36182202.682          30.000       17320.600       -1927.018
C27  26550599.802          27.000           0.000       -4618.187
C23  25050725.843          24.000       31365.662       -3488.801
C46  24540449.101          23.000       -5911.895        1181.117
C38  35921273.220          27.000           0.000       -1600.487
E04  26236907.167          14.000        7645.001        -959.200
E12  24428794.098          30.000        9935.125       -1108.897
E19  24841728.829          27.000       17861.941       -2556.840
G15  22309199.962          32.000       35387.609       -3936.233
J02  37405897.636          26.000       16284.995       -1811.559
> 2023 07 25 09 19 35.000001   0 37
G05  24195312.434           9.000        8238.369       -4119.940
C39  36008789.534          27.000           0.000       -2118.611
G10  24153731.220          24.000       -7423.368         741.507
C20  23139195.169          34.000           0.000       -1023.424
G12  24323292.935          13.000       -3590.657         366.144
G18  20522675.547          35.000        6573.864       -2190.440
G23  21527323.244          23.000        -448.041          46.129
G24  20266925.599          40.000       29133.486       -2921.992
J03  35972071.853          34.000        4284.143       -2142.142
G32  24603065.552          17.000        1883.271        -181.281
C32  23653153.662          30.000       19891.697       -2490.125
R14  21491228.535          38.000           0.000        1451.527
C37  22833069.295          25.000           0.000        -889.530
R18  20525438.438           9.000           0.000       -3944.545
R13  21129985.818          14.000           0.000       -1965.223
G25  24859571.877          26.000       -3591.489         648.580
C30  24167565.443          15.000           0.000       -4212.191
R17  22803090.052           9.000           0.000       -6174.599
C29  24322751.809          14.000           0.000       -2235.784
R03  21374383.825          19.000           0.000       -2339.199
R04  22045406.885          30.000           0.000       -1080.783
E33  24175844.811          27.000        7852.533       -3917.747
C06  35952838.668          19.000       17952.197       -1800.655
C08  35852820.409          35.000        1252.405       -1252.676
C09  36831311.813          17.000       16203.876       -1620.241
R19  21204828.106          15.000           0.000        -905.669
C13  36139124.605          36.000        7809.880       -1122.212
C16  36182572.626          29.000       19249.053       -1928.514
C27  26551484.490          26.000           0.000       -4609.636
C23  25051389.884          26.000       34854.857       -3490.862
C46  24540217.361          24.000       -7092.581        1178.011
C38  35921580.807          25.000           0.000       -1601.428
E04  26237085.843          13.000        8605.453        -961.005
E12  24429006.651          31.000       11045.591       -1112.343
E19  24842215.992          29.000       20419.495       -2559.066
G15  22309940.450          30.000       39325.272       -3937.673
J02  37406243.297          25.000       18096.729       -1813.124
> 2023 07 25 09 19 36.000001   0 38
G05  24196098.490           9.000       12356.665       -4114.735
C39  36009198.750          22.000           0.000       -2120.020
G10  24153590.317          22.000       -8163.865         739.846
C20  23139392.132          30.000           0.000       -1024.161
G12  24323230.878          12.000       -3957.977         366.821
G18  20523091.359          32.000        8766.191       -2194.980
G23  21527310.953          34.000        -493.367          44.189
G24  20267485.612          42.000          -0.392       -2922.611
J03  35972480.170          34.000        6427.940       -2142.740
G32  24603100.628          17.000        2066.539        -187.481
C32  23653631.232          35.000       22382.501       -2491.188
R14  21490948.529          34.000           0.000        1452.857
R02  23633568.524          17.000           0.000       -3337.839
C37  22833233.282          34.000           0.000        -891.274
R18  20526184.921           9.000           0.000       -3944.207
R13  21130353.664          16.000           0.000       -1969.835
G25  24859450.461          22.000       -4240.092         648.780
C30  24168391.071          17.000           0.000       -4243.669
R17  22804233.461           9.000           0.000       -6175.133
C29  24323181.112          14.000           0.000       -2244.944
R03  21374823.621          29.000           0.000       -2341.436
R04  22045614.642          28.000           0.000       -1080.846
E33  24176588.296          26.000       11769.581       -3916.696
C06  35953184.628          24.000       19754.029       -1803.235
C08  35853060.543          38.000        2505.380       -1253.169
C09  36831625.396          17.000       17824.229       -1622.013
R19  21204997.489          18.000           0.000        -910.453
C13  36139336.858          37.000        8930.364       -1120.346
C16  36182940.771          28.000       21178.748       -1930.900
C27  26552370.376          23.000           0.000       -4613.721
C23  25052058.721          28.000       38347.869       -3493.898
C46  24539991.617          23.000       -8267.902        1174.488
C38  35921885.696          24.000           0.000       -1603.233
E04  26237272.015          14.000        9567.540        -962.388
E12  24429216.206          33.000       12158.687       -1113.109
E19  24842702.555          28.000       22978.114       -2558.848
G15  22310689.631          32.000       43263.430       -3939.239
J02  37406589.257          30.000       19910.884       -1813.479
> 2023 07 25 09 19 37.000001   0 37
C39  36009606.468          26.000           0.000       -2119.855
G10  24153447.017          26.000       -8903.467         739.645
C20  23139591.794          29.000           0.000       -1023.546
G12  24323168.821          12.000       -4321.386         360.897
G18  20523505.972          40.000       10962.049       -2196.863
G23  21527298.361          40.000        -537.204          43.965
G24  20268042.326          43.000        2922.984       -2922.840
J03  35972890.586          34.000        8571.385       -2144.251
G32  24603136.303          18.000        2256.678        -192.871
C32  23654110.000          36.000       24873.906       -2491.609
R14  21490673.919          38.000           0.000        1451.580
R02  23634248.153          17.000           0.000       -3344.170
C37  22833402.364          26.000           0.000        -891.948
R18  20526920.612           9.000           0.000       -3944.792
R13  21130714.314          16.000           0.000       -1976.261
G25  24859329.045          23.000       -4889.204         649.841
C30  24169218.198          18.000           0.000       -4261.536
R17  22805379.567           9.000           0.000       -6174.464
C29  24323614.312          12.000           0.000       -2251.721
R03  21375260.418          35.000           0.000       -2342.139
R04  22045812.804          23.000           0.000       -1073.582
E33  24177334.480          31.000       15686.379       -3917.153
C06  35953528.490          21.000       21559.135       -1805.812
C08  35853304.874          38.000        3758.752       -1252.834
C09  36831936.881          18.000       19449.328       -1627.362
R19  21205169.869          24.000           0.000        -909.668
C13  36139552.708          24.000       10051.489       -1121.526
C16  36183308.317          26.000       23110.880       -1933.142
C27  26553257.163          24.000           0.000       -4616.156
C23  25052728.757          28.000       41842.660       -3495.645
C46  24539767.972          23.000       -9441.626        1172.864
C38  35922189.386          30.000           0.000       -1604.504
E04  26237452.490          13.000       10530.181        -962.313
E12  24429426.060          36.000       13271.997       -1113.741
E19  24843189.118          30.000       25536.114       -2558.441
G15  22311437.313          22.000       47201.755       -3934.899
J02  37406935.218          26.000       21725.199       -1815.496
> 2023 07 25 09 19 38.000001   0 37
C39  36010013.886          27.000           0.000       -2119.232
G10  24153308.213          25.000       -9642.980         739.484
C20  23139789.657          31.000           0.000       -1022.109
G12  24323107.663          12.000       -4679.377         354.702
G18  20523922.084          40.000       13159.273       -2198.040
G23  21527282.772          40.000           0.771          44.852
G24  20268599.640          43.000        5846.759       -2923.473
J03  35973302.501          36.000           0.118       -2144.208
G32  24603177.974          19.000        2449.570        -192.726
C32  23654598.063          36.000       27365.055       -2490.174
R14  21490400.808          39.000           0.000        1452.192
R02  23634841.443          13.000           0.000       -3321.462
C37  22833572.347          25.000           0.000        -893.738
R18  20527653.604          10.000           0.000       -3945.358
R13  21131080.660          16.000           0.000       -1963.892
G25  24859206.429          24.000       -5539.898         651.463
C30  24170037.531          16.000           0.000       -4270.997
R17  22806528.072          10.000           0.000       -6172.714
C29  24324045.414          12.000           0.000       -2253.489
R03  21375698.715          36.000           0.000       -2341.698
R04  22046007.969          24.000           0.000       -1080.597
E33  24178080.663          32.000       19604.206       -3918.699
C06  35953872.052          23.000       23364.482       -1804.965
C08  35853546.806          36.000        5011.852       -1252.809
C09  36832248.365          18.000       21079.763       -1632.561
R19  21205335.055          23.000           0.000        -903.969
C13  36139768.559          33.000       11172.525       -1120.837
C16  36183675.263          23.000       25044.187       -1933.056
C27  26554147.546          24.000           0.000       -4616.901
C23  25053398.193          28.000       45339.766       -3497.153
C46  24539535.033          21.000      -10615.067        1174.294
C38  35922494.275          26.000           0.000       -1604.581
E04  26237635.363          13.000       11492.492        -960.196
E12  24429637.714          36.000       14384.490       -1113.317
E19  24843676.581          26.000       28094.549       -2559.304
G15  22312175.702          21.000       51137.637       -3936.622
J02  37407280.878          28.000       23540.956       -1817.069
> 2023 07 25 09 19 39.000001   0 37
C39  36010420.405          26.000           0.000       -2118.649
G10  24153167.610          25.000      -10382.836         740.019
C20  23139989.918          27.000           0.000       -1020.558
G12  24323046.205          16.000       -5030.382         348.753
G18  20524338.196          40.000           0.279       -2197.524
G23  21527274.678          41.000         -42.842          43.946
G24  20269154.556          43.000        8771.035       -2925.042
J03  35973711.718          38.000        2143.879       -2144.063
G32  24603219.046          18.000        2642.678        -194.505
C32  23655086.125          36.000           0.381       -2488.590
R14  21490134.592          39.000           0.000        1451.569
R02  23635461.114          12.000           0.000       -3324.392
C37  22833744.428          26.000           0.000        -892.545
R18  20528389.894           9.000           0.000       -3945.105
R13  21131442.510          17.000           0.000       -1966.857
G25  24859083.215          24.000       -6190.833         650.729
C30  24170856.864          16.000           0.000       -4276.639
R17  22807673.879          12.000           0.000       -6173.672
C29  24324476.515          13.000           0.000       -2247.880
R03  21376136.712          36.000           0.000       -2341.109
R04  22046212.128          26.000           0.000       -1067.587
E33  24178833.742          31.000       23524.005       -3922.367
C06  35954215.315          25.000       25168.561       -1803.206
C08  35853789.038          35.000        6264.924       -1252.366
C09  36832561.049          17.000       22711.082       -1631.535
R19  21205502.939          19.000           0.000        -903.920
C13  36139983.510          34.000       12292.797       -1120.239
C16  36184039.211          24.000       26977.453       -1933.841
C27  26555036.431          25.000           0.000       -4616.356
C23  25054068.829          27.000       48836.786       -3496.837
C46  24539296.698          18.000      -11791.378        1176.412
C38  35922797.365          25.000           0.000       -1604.794
E04  26237823.333          15.000       12452.606        -960.332
E12  24429850.866          35.000       15497.397       -1113.073
E19  24844163.444          24.000       30653.821       -2559.372
G15  22312920.986          25.000       55074.812       -3937.371
J02  37407626.239          27.000       25357.653       -1816.205
> 2023 07 25 09 19 40.000001   0 36
C39  36010826.923          27.000           0.000       -2118.401
G10  24153025.808          26.000      -11123.347         741.136
C20  23140188.681          30.000           0.000       -1021.448
G12  24322991.044          18.000       -5378.339         348.540
G18  20524758.206          39.000        2198.245       -2198.256
G23  21527266.883          40.000         -87.439          44.681
G24  20269712.170          41.000       11695.446       -2924.510
J03  35974118.536          38.000        4287.233       -2143.598
G32  24603260.117          19.000        2836.788        -194.503
C32  23655566.392          36.000        2489.681       -2488.547
R14  21489866.578          37.000           0.000        1452.143
R02  23636072.091           9.000           0.000       -3314.969
C37  22833913.511          32.000           0.000        -891.491
R18  20529138.176           9.000           0.000       -3945.094
R13  21131807.957          19.000           0.000       -1977.725
G25  24858958.501          24.000       -6842.095         651.380
C30  24171676.197          17.000           0.000       -4273.498
R17  22808819.686          12.000           0.000       -6172.404
C29  24324907.017          12.000           0.000       -2242.309
R03  21376572.010          36.000           0.000       -2340.419
R04  22046416.287          22.000           0.000       -1069.028
E33  24179591.017          32.000           0.065       -3919.610
C06  35954560.676          24.000       26970.797       -1801.954
C08  35854029.772          33.000        7517.566       -1252.694
C09  36832871.334          18.000       24344.461       -1633.642
R19  21205670.523          22.000           0.000        -905.865
C13  36140201.159          34.000       13413.296       -1119.571
C16  36184407.656          25.000       28910.242       -1932.828
C27  26555925.016          26.000           0.000       -4616.646
C23  25054737.366          28.000       52333.468       -3496.435
C46  24539066.158          21.000      -12967.552        1175.132
C38  35923104.352          24.000           0.000       -1603.157
E04  26238013.102          17.000       13412.977        -960.598
E12  24430062.520          36.000           0.404       -1113.929
E19  24844650.606          19.000       33213.903       -2561.018
G15  22313666.570          29.000       59012.584       -3937.935
> 2023 07 25 09 19 41.000001   0 36
C39  36011233.442          27.000           0.000       -2119.404
G10  24152884.606          26.000      -11865.096         742.790
C20  23140390.441          28.000           0.000       -1018.709
G12  24322931.385          20.000       -5727.463         349.542
G18  20525178.515          39.000        4394.803       -2196.533
G23  21527255.791          40.000        -133.982          47.141
G24  20270268.285          42.000       14618.367       -2922.219
J03  35974525.954          38.000        6428.607       -2139.055
G32  24603301.489          25.000        3031.654        -194.465
C32  23656043.062          35.000        4977.006       -2486.464
R14  21489582.675          39.000           0.000        1455.157
R02  23636683.368          10.000           0.000       -3317.146
C37  22834082.893          32.000           0.000        -889.824
R18  20529875.966           9.000           0.000       -3944.353
R13  21132172.804          19.000           0.000       -1980.270
G25  24858829.590          25.000       -7493.820         652.579
C30  24172495.829          16.000           0.000       -4273.244
R17  22809962.794          10.000           0.000       -6172.891
C29  24325337.519          13.000           0.000       -2243.023
R03  21377008.808          35.000           0.000       -2338.173
R04  22046608.753          20.000           0.000       -1072.787
E33  24180337.201          32.000        3919.509       -3919.851
C06  35954902.439          24.000       28772.583       -1801.691
C08  35854269.606          33.000        8768.247       -1249.280
C09  36833183.718          17.000       25983.234       -1638.815
R19  21205843.503          20.000           0.000        -913.886
C13  36140417.310          33.000           0.300       -1118.182
C16  36184774.302          25.000       30841.199       -1929.477
C27  26556812.701          27.000           0.000       -4613.135
C23  25055405.604          27.000       55828.308       -3493.764
C46  24538829.022          20.000      -14143.932        1179.282
C38  35923411.939          21.000           0.000       -1599.934
E04  26238204.069          18.000       14373.354        -959.942
E12  24430275.072          35.000        1112.062       -1109.654
E19  24845137.769          18.000       35774.765       -2560.991
G15  22314414.852          31.000       62950.040       -3936.164
> 2023 07 25 09 19 42.000001   0 36
C39  36011639.361          27.000           0.000       -2115.702
G10  24152744.003          25.000      -12608.963         744.779
C20  23140594.600          28.000           0.000       -1016.878
G12  24322872.326          20.000       -6078.819         352.221
G18  20525594.926          38.000        6590.728       -2195.718
G23  21527247.996          39.000        -181.693          47.648
G24  20270823.201          40.000       17540.673       -2922.486
J03  35974932.772          37.000        8568.696       -2141.295
G32  24603341.661          25.000        3225.254        -193.342
C32  23656516.434          34.000        7463.002       -2485.871
R14  21489304.167          41.000           0.000        1454.549
R02  23637301.540          10.000           0.000       -3314.957
C37  22834256.173          33.000           0.000        -889.429
R18  20530612.556           9.000           0.000       -3945.109
R13  21132539.450          21.000           0.000       -1975.022
G25  24858703.078          25.000       -8146.632         653.162
C30  24173315.162          15.000           0.000       -4271.769
R17  22811113.098           9.000           0.000       -6174.223
C29  24325768.321          14.000           0.000       -2238.875
R03  21377446.805          35.000           0.000       -2336.179
R04  22046807.816          21.000           0.000       -1065.657
E33  24181084.284          32.000        7837.938       -3919.397
C06  35955242.404          18.000       30571.619       -1796.968
C08  35854512.138          33.000       10017.701       -1250.575
C09  36833496.101          15.000       27620.515       -1641.334
R19  21206014.984          22.000           0.000        -900.465
C13  36140632.860          34.000        1116.926       -1115.636
C16  36185143.347          23.000       32769.600       -1926.737
C27  26557698.288          23.000           0.000       -4607.713
C23  25056074.441          27.000       59321.466       -3492.348
C46  24538595.484          20.000      -15325.840        1183.240
C38  35923721.025          19.000           0.000       -1600.730
E04  26238395.037          19.000       15332.361        -958.624
E12  24430487.925          36.000        2222.955       -1111.794
E19  24845624.032          19.000       38332.574       -2556.768
G15  22315164.633          32.000       66885.306       -3934.551
> 2023 07 25 09 19 43.000001   0 37
C39  36012045.879          27.000           0.000       -2118.777
G10  24152603.101          27.000      -13354.090         744.982
C20  23140800.257          26.000           0.000       -1017.158
G12  24322811.468          21.000       -6432.640         355.583
G18  20526013.137          39.000        8788.534       -2199.014
G23  21527241.101          39.000        -228.109          44.578
G24  20271381.115          41.000       20464.795       -2925.404
J03  35975338.691          37.000       10710.131       -2143.006
G29  25148327.775          14.000           0.000       -4121.519
G32  24603377.636          24.000        3417.493        -192.034
C32  23656994.603          32.000        9950.253       -2489.155
R14  21489028.658          41.000           0.000        1452.678
R02  23637918.812          10.000           0.000       -3318.076
C37  22834427.655          34.000           0.000        -891.938
R18  20531341.351           9.000           0.000       -3945.949
R13  21132900.101          21.000           0.000       -1978.706
G25  24858577.765          26.000       -8800.782         653.361
C30  24174132.696          15.000           0.000       -4256.788
R17  22812262.802           9.000           0.000       -6174.228
C29  24326197.624          15.000           0.000       -2229.589
R03  21377883.302          34.000           0.000       -2335.827
R04  22047008.677          25.000           0.000       -1070.976
E33  24181829.268          31.000       11757.977       -3920.264
C06  35955584.167          18.000       32368.300       -1796.589
C08  35854753.770          33.000       11268.451       -1253.204
C09  36833808.485          16.000       29260.868       -1636.941
R19  21206179.570          21.000           0.000        -917.004
C13  36140846.613          33.000        2234.774       -1119.097
C16  36185513.290          24.000       34696.122       -1927.150
C27  26558583.875          24.000           0.000       -4606.854
C23  25056744.177          27.000       62813.480       -3492.322
C46  24538360.746          19.000      -16509.272        1186.206
C38  35924028.912          20.000           0.000       -1600.735
E04  26238583.906          19.000       16289.071        -958.358
E12  24430697.480          36.000        3335.408       -1113.993
E19  24846108.797          20.000       40885.937       -2556.035
G15  22315918.011          34.000           0.119       -3932.167
> 2023 07 25 09 19 44.000001   0 37
C39  36012452.698          27.000           0.000       -2118.201
G10  24152463.997          25.000      -14097.927         742.892
C20  23141007.714          24.000           0.000       -1019.422
G12  24322750.011          20.000       -6788.956         354.793
G18  20526431.647          38.000       10988.792       -2201.905
G23  21527230.608          38.000        -272.584          43.972
G24  20271938.129          40.000       23391.421       -2927.554
J03  35975746.709          37.000       12853.411       -2143.799
G29  25149099.141          14.000           0.556       -4118.672
G32  24603410.313          21.000        3609.941        -194.294
C32  23657479.668          31.000       12439.346       -2490.995
R14  21488763.941          41.000           0.000        1450.297
R02  23638536.085          10.000           0.000       -3330.379
C37  22834602.434          35.000           0.000        -894.890
R18  20532076.142           9.000           0.000       -3946.909
R13  21133258.053          21.000           0.000       -1979.204
G25  24858453.651          26.000       -9453.763         652.886
C30  24174948.731          15.000           0.000       -4258.378
R17  22813405.611           9.000           0.000       -6175.612
C29  24326625.128          15.000           0.000       -2223.688
R03  21378323.098          33.000           0.000       -2337.744
R04  22047209.238          25.000           0.000       -1067.974
E33  24182577.550          32.000       15680.110       -3922.822
C06  35955928.029          17.000       34164.528       -1797.306
C08  35854994.204          32.000       12521.137       -1253.278
C09  36834119.370          15.000       30896.955       -1632.845
R19  21206347.454          20.000           0.000        -916.166
C13  36141060.964          33.000        3354.453       -1119.977
C16  36185884.433          22.000       36623.434       -1927.274
C27  26559471.860          24.000           0.000       -4609.742
C23  25057413.014          27.000       66306.233       -3493.900
C46  24538129.007          19.000      -17694.374        1184.761
C38  35924340.397          21.000           0.000       -1601.492
E04  26238770.977          18.000       17247.886        -960.432
E12  24430909.134          35.000        4450.172       -1115.496
E19  24846595.360          20.000       43442.573       -2556.390
G15  22316667.792          34.000        3937.459       -3938.101
> 2023 07 25 09 19 45.000001   0 37
C39  36012859.216          28.000           0.000       -2120.297
G10  24152322.495          25.000      -14839.529         740.616
C20  23141211.573          25.000           0.000       -1023.116
G12  24322686.455          19.000       -7144.435         356.412
G18  20526850.157          38.000       13191.158       -2203.804
G23  21527218.017          38.000        -315.392          41.126
G24  20272497.842          40.000       26320.172       -2930.373
J03  35976151.129          37.000       14998.099       -2146.327
G29  25149898.388           9.000        4117.699       -4119.483
G32  24603445.089          14.000        3804.502        -196.523
C32  23657953.939          28.000       14929.747       -2492.013
R14  21488497.126          41.000           0.000        1449.048
R02  23639153.058          11.000           0.000       -3337.438
C37  22834774.814          36.000           0.000        -895.985
R18  20532820.227           9.000           0.000       -3948.590
R13  21133624.100          20.000           0.000       -1973.376
G25  24858329.237          25.000      -10105.130         649.560
C30  24175764.467          15.000           0.000       -4258.023
R17  22814552.617           9.000           0.000       -6175.383
C29  24327051.433          14.000           0.000       -2230.257
R03  21378758.397          32.000           0.000       -2339.419
R04  22047414.296          26.000           0.000       -1074.180
E33  24183326.132          30.000       19604.004       -3926.238
C06  35956269.792          16.000       35960.960       -1795.848
C08  35855228.642          32.000       13775.375       -1255.931
C09  36834428.756          15.000       32527.317       -1628.402
R19  21206518.636          21.000           0.000        -908.824
C13  36141275.016          34.000        4475.524       -1121.265
C16  36186254.078          20.000       38551.619       -1930.224
C27  26560360.445          23.000           0.000       -4613.165
C23  25058083.650          27.000       69801.898       -3496.966
C46  24537898.167          18.000      -18879.761        1185.917
C38  35924651.881          21.000           0.000       -1603.753
E04  26238959.546          18.000       18209.458        -962.415
E12  24431120.187          35.000        5566.818       -1119.943
E19  24847081.024          20.000       45998.896       -2555.491
G15  22317419.972          34.000        7876.275       -3939.754
> 2023 07 25 09 19 46.000001   0 37
C39  36013267.234          26.000           0.000       -2119.109
G10  24152173.798          20.000      -15578.895         737.505
C20  23141401.041          27.000           0.000       -1024.155
G12  24322619.301          18.000       -7498.188         349.089
G18  20527269.867          38.000       15394.631       -2204.755
G23  21527212.621          32.000        -357.765          40.750
G24  20273054.556          40.000       29249.837       -2930.102
J03  35976556.748          34.000       17143.299       -2144.930
G29  25150683.544           9.000        8237.660       -4116.562
G32  24603479.865          16.000        4001.187        -197.653
C32  23658424.913          27.000       17419.862       -2490.264
R14  21488223.416          40.000           0.000        1448.741
R02  23639773.628          11.000           0.000       -3348.211
C37  22834944.497          37.000           0.000        -896.690
R18  20533554.119           9.000           0.000       -3949.802
R13  21133992.245          20.000           0.000       -1980.317
G25  24858207.521          23.000      -10754.729         649.252
C30  24176579.302          16.000           0.000       -4245.798
R17  22815700.822          11.000           0.000       -6175.000
C29  24327479.536          13.000           0.000       -2234.462
R03  21379193.695          28.000           0.000       -2341.050
R04  22047626.549          23.000           0.000       -1074.238
E33  24184075.913          28.000       23528.841       -3924.398
C06  35956616.652          23.000       37759.079       -1802.947
C08  35855462.780          33.000       15028.421       -1255.347
C09  36834738.141          15.000       34154.535       -1626.920
R19  21206681.423          21.000           0.000        -910.935
C13  36141488.768          35.000        5595.673       -1122.007
C16  36186621.623          17.000       40482.383       -1931.635
C27  26561241.235          24.000           0.000       -4614.708
C23  25058757.883          27.000       73300.013       -3498.807
C46  24537671.523          18.000      -20062.228        1179.979
C38  35924963.965          26.000           0.000       -1606.471
E04  26239151.713          19.000       19172.731        -964.202
E12  24431328.543          28.000        6684.563       -1117.123
E19  24847567.587          25.000       48555.511       -2559.691
G15  22318170.052          30.000       11816.603       -3940.176
> 2023 07 25 09 19 47.000001   0 38
G05  24204832.643          14.000           0.000       -4113.518
C39  36013674.652          20.000           0.000       -2117.501
G10  24152029.598          13.000      -16317.172         741.353
C20  23141587.512          28.000           0.000       -1023.828
G12  24322566.238          16.000       -7846.879         351.225
G18  20527690.775          35.000       17598.622       -2205.291
G23  21527210.222          31.000        -400.199          40.058
G24  20273610.971          41.000       32180.084       -2931.187
J03  35976967.464          37.000       19288.597       -2144.758
G29  25151467.801           9.000       12353.678       -4113.214
G32  24603514.941          17.000        4197.459        -195.676
C32  23658894.388          31.000       19910.301       -2490.618
R14  21487947.906          40.000           0.000        1448.602
R02  23640395.398          11.000           0.000       -3354.967
C37  22835116.578          36.000           0.000        -896.784
R18  20534291.309           9.000           0.000       -3950.358
R13  21134363.388          19.000           0.000       -1988.310
G25  24858082.807          21.000      -11403.080         647.099
C30  24177392.340          16.000           0.000       -4241.909
R17  22816847.828          12.000           0.000       -6173.986
C29  24327908.539          13.000           0.000       -2234.744
R03  21379628.694          25.000           0.000       -2341.608
R04  22047830.108          18.000           0.000       -1077.703
E33  24184828.991          18.000       27452.015       -3923.674
C06  35956963.512          26.000       39562.904       -1805.340
C08  35855702.314          32.000       16283.668       -1254.628
C09  36835044.529          17.000       35780.726       -1625.603
R19  21206836.116           9.000           0.000        -908.942
C13  36141703.719          40.000        6717.945       -1122.326
C16  36186993.366          18.000       42412.968       -1929.131
C27  26562124.124          22.000           0.000       -4615.438
C23  25059433.315          29.000       76799.395       -3499.747
C46  24537448.478          17.000      -21241.334        1179.002
C38  35925273.051          31.000           0.000       -1606.080
E04  26239342.381          20.000       20137.145        -964.376
E12  24431538.398          19.000        7801.484       -1117.137
E19  24848054.150          23.000       51113.590       -2558.521
G15  22318922.831          23.000       15756.370       -3938.560
> 2023 07 25 09 19 48.000001   0 38
G05  24205604.309          14.000           0.089       -4115.720
C39  36014081.470          18.000           0.000       -2113.755
G10  24151882.700          15.000      -17058.514         741.160
C20  23141773.384          28.000           0.000       -1023.945
G12  24322508.078          14.000       -8197.688         348.446
G18  20528106.588          36.000       19802.808       -2204.998
G23  21527203.627          30.000        -442.857          45.645
G24  20274167.086          41.000       35110.561       -2930.430
J03  35977376.680          37.000       21433.472       -2145.020
G29  25152254.157           9.000       16467.321       -4114.057
G32  24603549.417          18.000        4392.808        -195.553
C32  23659365.362          30.000       22400.803       -2490.016
R14  21487675.695          39.000           0.000        1448.604
R02  23641017.467          12.000           0.000       -3350.493
C37  22835289.858          36.000           0.000        -896.348
R18  20535031.197           9.000           0.000       -3950.865
R13  21134735.430          18.000           0.000       -1985.397
G25  24857963.190          22.000      -12050.189         646.925
C30  24178205.377          16.000           0.000       -4244.256
R17  22817996.033          11.000           0.000       -6172.900
R03  21380066.091          26.000           0.000       -2340.904
R04  22048045.059          18.000           0.000       -1070.940
E33  24185582.370          19.000       31376.951       -3924.247
C06  35957309.772          25.000       41369.396       -1808.748
C08  35855939.150          33.000       17538.354       -1253.927
C09  36835350.318          18.000       37406.776       -1627.834
R19  21206997.704          13.000           0.000        -907.549
C13  36141918.970          40.000        7839.159       -1120.249
C16  36187370.804          19.000       44342.743       -1931.332
C27  26563007.313          23.000           0.000       -4614.068
C23  25060107.848          29.000       80299.574       -3500.883
C46  24537226.332          17.000      -22419.171        1175.693
C38  35925579.439          32.000           0.000       -1604.055
C29  24328359.427          23.000       51153.889       -2233.216
E04  26239534.848          21.000       21101.648        -964.659
E12  24431748.253          20.000        8918.475       -1116.023
E19  24848541.613          23.000       53672.326       -2560.114
G15  22319688.501          19.000       19694.709       -3938.371
> 2023 07 25 09 19 49.000001   0 38
G05  24206372.077          13.000        4116.629       -4121.427
C39  36014489.488          20.000           0.000       -2121.612
G10  24151742.696          15.000      -17799.113         740.423
C20  23141957.156          26.000           0.000       -1021.899
G12  24322449.019          13.000       -8544.232         345.480
G18  20528525.997          36.000       22007.627       -2203.918
G23  21527191.036          31.000        -485.687          41.032
G24  20274724.700          40.000       38041.503       -2931.319
J03  35977787.096          37.000       23578.323       -2144.631
G29  25153035.416          11.000       20580.475       -4109.325
G32  24603582.394          18.000        4588.828        -195.490
C32  23659836.336          32.000       24890.951       -2490.273
R14  21487408.580          40.000           0.000        1448.885
R02  23641638.937          12.000           0.000       -3352.771
C37  22835461.339          36.000           0.000        -896.019
R18  20535777.980           9.000           0.000       -3953.614
R13  21135106.273          18.000           0.000       -1986.105
G25  24857838.177          23.000      -12699.583         650.990
C30  24179019.613          17.000           0.000       -4252.959
R17  22819145.737          11.000           0.000       -6172.685
R03  21380503.189          25.000           0.000       -2339.818
R04  22048266.606          20.000           0.000       -1079.073
E33  24186331.251          19.000       35301.033       -3923.082
C06  35957656.632          25.000       43177.618       -1807.300
C08  35856179.284          33.000           1.000       -1252.953
C09  36835659.703          19.000       39033.480       -1625.674
R19  21207156.594          14.000           0.000        -906.767
C13  36142134.221          40.000          -0.395       -1121.330
C16  36187744.945          19.000       46273.702       -1931.675
C27  26563892.300          24.000           0.000       -4613.055
C23  25060783.281          30.000       83799.411       -3500.812
C46  24537001.188          17.000      -23595.991        1178.101
C38  35925886.127          31.000           0.000       -1604.578
C29  24328787.231          23.000       53386.964       -2232.201
E04  26239725.216          21.000       22065.860        -963.864
E12  24431958.707          20.000       10033.666       -1114.280
E19  24849028.775          23.000       56234.664       -2564.448
G15  22320453.572          24.000       23633.626       -3938.464
> 2023 07 25 09 19 50.000001   0 38
G05  24207160.531          10.000        8239.496       -4122.663
C39  36014899.904          20.000           0.000       -2130.162
G10  24151605.092          17.000      -18539.863         740.910
C20  23142144.227          29.000           0.000       -1021.866
G12  24322392.058          12.000       -8888.786         343.717
G18  20528948.405          33.000       24212.603       -2205.548
G23  21527185.340          31.000        -528.714          43.533
G24  20275279.016          38.000       40972.550       -2931.916
J03  35978198.412          37.000       25722.433       -2143.999
G29  25153816.975          10.000       24688.792       -4105.951
G32  24603618.369          19.000        4787.006        -198.850
C32  23660309.708          32.000       27381.281       -2490.445
R14  21487136.668          39.000           0.000        1449.140
R02  23642261.906          14.000           0.000       -3345.780
C37  22835628.623          35.000           0.000        -897.385
R18  20536515.769           9.000           0.000       -3953.385
R13  21135475.318          17.000           0.000       -1983.663
G25  24857711.365          22.000      -13350.850         651.400
C30  24179835.648          16.000           0.000       -4258.782
R17  22820294.242           9.000           0.000       -6172.775
R03  21380939.686          25.000           0.000       -2339.846
R04  22048475.561          19.000           0.000       -1078.637
E33  24187080.133          19.000       39226.332       -3925.969
C06  35958003.792          26.000       44984.381       -1807.323
C08  35856429.311          29.000        1254.862       -1257.648
C09  36835970.288          21.000       40659.762       -1626.653
R19  21207328.075          15.000           0.000        -915.906
C13  36142347.973          36.000        1120.580       -1120.890
C16  36188120.585          19.000       48205.902       -1932.587
C27  26564777.287          22.000           0.000       -4612.308
C23  25061459.013          31.000       87299.913       -3499.937
C46  24536778.442          17.000      -24775.859        1180.892
C38  35926193.114          31.000           0.000       -1603.645
C29  24329212.637          16.000       55618.552       -2231.634
E04  26239914.985          21.000       23029.980        -967.251
E12  24432170.660          26.000       11148.226       -1117.203
E19  24849516.837          22.000       58800.398       -2563.406
G15  22321206.650          30.000       27572.357       -3938.805
> 2023 07 25 09 19 51.000001   0 38
G05  24207945.988          12.000       12362.272       -4121.266
C39  36015309.420          19.000           0.000       -2133.430
G10  24151463.290          19.000      -19280.008         740.018
C20  23142334.895          34.000           0.000       -1021.300
G12  24322330.901          13.000       -9231.674         339.131
G18  20529376.808          31.000       26417.892       -2205.911
G23  21527184.440          36.000        -572.093          43.797
G24  20275844.725          42.000       43903.989       -2931.132
J03  35978603.731          33.000       27866.457       -2144.175
G29  25154605.129          12.000       28794.905       -4108.609
G32  24603657.942          19.000        4985.750        -198.191
C32  23660791.475          23.000       29871.931       -2490.999
R14  21486867.454          34.000           0.000        1448.951
R02  23642883.375          13.000           0.000       -3330.944
C37  22835798.006          34.000           0.000        -896.631
R18  20537253.858           9.000           0.000       -3953.616
R13  21135846.461          15.000           0.000       -1967.735
G25  24857586.651          24.000      -14004.659         655.633
C30  24180653.482          17.000           0.000       -4273.330
R17  22821441.548           9.000           0.000       -6171.867
C29  24329616.757          12.000           0.000       -2236.786
R03  21381373.186          27.000           0.000       -2339.273
R04  22048669.827          20.000           0.000       -1074.984
E33  24187824.518          19.000       43151.721       -3925.759
C06  35958351.251          21.000       46790.526       -1805.459
C08  35856673.641          31.000        2508.429       -1253.192
C09  36836280.274          21.000       42286.967       -1628.970
R19  21207497.458          24.000           0.000        -915.676
C13  36142567.421          28.000        2241.367       -1121.409
C16  36188496.525          25.000       50140.177       -1935.436
C27  26565658.377          26.000           0.000       -4613.953
C23  25062134.146          31.000       90799.606       -3499.807
C46  24536553.298          16.000      -25958.193        1182.437
C38  35926499.502          30.000           0.000       -1605.010
E04  26239972.545          20.000       23996.239        -965.678
E12  24432387.110          34.000       12265.940       -1118.585
E19  24850004.000          23.000       61361.297       -2559.999
G15  22321950.435          25.000       31510.077       -3938.887
> 2023 07 25 09 19 52.000001   0 37
G05  24208729.945          14.000       16484.594       -4126.677
C39  36015721.035          18.000           0.000       -2128.366
G10  24151324.786          25.000      -20020.968         741.261
C20  23142529.160          29.000           0.000       -1020.800
G12  24322270.043          11.000       -9571.355         341.473
G18  20529797.717          31.000       28623.463       -2206.155
G23  21527180.843          36.000        -615.729          43.998
G24  20276400.540          43.000       46835.683       -2932.509
J03  35979004.853          33.000       30010.132       -2144.086
G29  25155389.686          11.000       32905.091       -4112.329
G32  24603699.613          18.000        5184.076        -196.420
C32  23661276.839          28.000       32361.992       -2489.604
R14  21486599.440          38.000           0.000        1449.082
R02  23643503.346          14.000           0.000       -3319.409
C37  22835976.083          34.000           0.000        -896.103
R18  20537996.144           9.000           0.000       -3953.440
R13  21136232.294          12.000           0.000       -1961.272
G25  24857464.336          21.000      -14659.620         655.190
C30  24181471.316          17.000           0.000       -4262.223
R17  22822591.252           9.000           0.000       -6170.852
C29  24330045.160          13.000           0.000       -2235.647
R03  21381808.185          29.000           0.000       -2338.534
R04  22048854.199          20.000           0.000       -1072.562
E33  24188567.103          18.000       47078.853       -3927.744
C06  35958701.109          17.000       48594.109       -1801.396
C08  35856915.274          36.000        3761.707       -1253.578
C09  36836592.358          21.000       43916.260       -1628.474
R19  21207668.340          25.000           0.000        -909.012
C13  36142778.775          23.000        3362.685       -1121.707
C16  36188872.165          24.000       52074.835       -1933.328
C27  26566539.467          20.000           0.000       -4612.426
C23  25062821.270          32.000       94299.108       -3499.852
C46  24536324.256          16.000      -27142.814        1184.613
C38  35926802.892          26.000           0.000       -1603.939
E04  26240156.018          18.000       24961.275        -964.464
E12  24432600.862          34.000       13384.904       -1119.482
E19  24850490.863          23.000       63918.200       -2553.093
> 2023 07 25 09 19 53.000001   0 37
G05  24209516.001          12.000       20613.455       -4130.378
C39  36016130.851          17.000           0.000       -2124.570
G10  24151185.082          25.000      -20763.115         742.672
C20  23142726.124          29.000           0.000       -1020.265
G12  24322211.883           9.000       -9913.120         342.242
G18  20530216.827          32.000       30829.663       -2206.727
G23  21527156.560          35.000        -659.242          41.432
G24  20276956.655          42.000       49767.774       -2932.525
J03  35979414.969          34.000           0.738       -2143.204
G29  25156174.243          12.000       37019.087       -4117.151
G32  24603740.685          17.000        5380.319        -196.583
C32  23661763.102          26.000       34850.932       -2488.214
R14  21486329.027          39.000           0.000        1448.777
R02  23644119.120          14.000           0.000       -3300.828
C37  22836156.558          33.000           0.000        -897.642
R13  21136603.437           9.000           0.000       -1951.839
G25  24857339.922          26.000      -15315.556         655.637
C30  24182288.250          16.000           0.000       -4261.612
R17  22823741.556           9.000           0.000       -6171.807
C29  24330475.362          15.000           0.000       -2231.543
R03  21382240.486          29.000           0.000       -2338.435
R04  22049049.963          25.000           0.000       -1071.464
E33  24189307.591          18.000       51004.653       -3925.059
C06  35959045.571          15.000       50394.105       -1800.694
C08  35857156.607          37.000        5014.580       -1252.184
C09  36836907.140          21.000       45544.222       -1628.771
R19  21207838.922          26.000           0.000        -910.873
C13  36142990.728          27.000        4484.922       -1121.992
C16  36189245.107          26.000       54007.148       -1931.978
C27  26567423.555          26.000           0.000       -4610.842
C23  25063505.396          30.000       97800.290       -3506.084
C46  24536102.410          24.000      -28323.397        1178.231
C38  35927107.181          28.000           0.000       -1603.228
E04  26240337.392          16.000       25925.921        -965.156
E12  24432820.310          35.000       14503.505       -1119.141
E19  24850975.927          24.000       66471.993       -2553.125
G15  22323466.786          19.000       39385.895       -3935.633
> 2023 07 25 09 19 54.000001   0 36
G05  24210298.759          12.000       24745.422       -4130.999
C39  36016540.068          16.000           0.000       -2127.459
G10  24151043.880          23.000      -21505.307         741.945
C20  23142920.090          32.000           0.000       -1020.193
G12  24322150.126           9.000      -10259.684         349.109
G18  20530634.438          28.000       33036.510       -2206.705
G23  21527148.165          33.000        -701.605          42.469
G24  20277511.271          39.000       52699.966       -2924.646
J03  35979822.987          34.000        2142.944       -2142.988
G29  25156959.399          11.000       41137.892       -4120.877
G32  24603776.360          17.000        5577.315        -196.309
C32  23662240.971          26.000       37338.839       -2487.999
R14  21486055.616          28.000           0.000        1447.987
R02  23644733.095          14.000           0.000       -3290.071
C37  22836328.938          38.000           0.000        -900.546
R13  21136969.484           9.000           0.000       -1951.096
G25  24857217.307          22.000      -15971.361         656.296
C30  24183105.484          17.000           0.000       -4256.596
R17  22824887.063           9.000           0.000       -6170.568
C29  24330904.066          16.000           0.000       -2223.852
R03  21382678.483          26.000           0.000       -2337.146
R04  22049260.717          25.000           0.000       -1070.213
E33  24190048.978          23.000       54930.380       -3922.848
C06  35959391.231          16.000       52195.581       -1802.393
C08  35857393.143          30.000        6266.687       -1257.951
C09  36837221.622          21.000       47171.348       -1624.967
R19  21208014.600          21.000           0.000        -910.980
C13  36143207.478          32.000        5606.142       -1120.597
C16  36189613.852          24.000       55938.740       -1931.384
C27  26568309.142          21.000           0.000       -4611.052
C23  25064175.432          24.000      101301.573       -3501.208
C46  24535885.360          21.000      -29499.720        1175.540
C38  35927419.265          26.000           0.000       -1605.146
E04  26240518.767          15.000       26889.255        -961.979
E12  24433034.662          28.000       15622.611       -1119.942
E19  24851461.591          29.000       69027.103       -2556.794
> 2023 07 25 09 19 55.000001   0 37
G05  24211083.915          13.000       28878.626       -4133.803
C39  36016947.486          15.000           0.000       -2123.959
G10  24150902.978          21.000      -22248.078         742.826
C20  23143116.154          35.000           0.000       -1020.291
G12  24322090.767           9.000      -10612.048         354.901
G18  20531054.447          27.000       35242.401       -2205.906
G23  21527142.170          31.000        -745.169          47.081
G24  20278068.885          34.000       55628.436       -2932.482
J03  35980230.405          37.000        4286.500       -2144.301
G29  25157743.656          12.000       45262.527       -4130.635
G32  24603812.335          19.000        5774.709        -198.714
C32  23662720.639          28.000       39826.498       -2487.304
R14  21485783.405          34.000           0.000        1449.959
R02  23645344.971          14.000           0.000       -3290.877
C37  22836498.321          35.000           0.000        -896.678
R13  21137334.331           9.000           0.000       -1950.771
G25  24857091.993          10.000      -16626.480         656.115
C30  24183920.320          17.000           0.000       -4249.745
R17  22826034.368           9.000           0.000       -6157.392
C29  24331333.668          18.000           0.000       -2235.922
R03  21383112.282          28.000           0.000       -2336.769
R04  22049459.480          22.000           0.000       -1069.928
E33  24190786.167          22.000       58855.670       -3926.087
C06  35959738.091          18.000       53998.069       -1803.448
C08  35857632.977          30.000        7522.585       -1255.400
C09  36837536.404          21.000       48798.281       -1628.203
R19  21208183.983           9.000           0.000        -914.214
C13  36143421.830          33.000        6726.430       -1118.324
C16  36189983.796          28.000       57870.049       -1932.048
C27  26569192.930          22.000           0.000       -4608.290
C23  25064844.869          18.000      104803.379       -3502.281
C46  24535666.811          23.000      -30674.231        1173.570
C38  35927726.852          31.000           0.000       -1604.655
E04  26240698.642          16.000       27850.789        -960.052
E12  24433248.714          17.000       16741.804       -1120.239
E19  24851948.154          27.000       71583.395       -2555.571
G15  22324964.249          26.000       47257.981       -3937.266
> 2023 07 25 09 19 56.000001   0 37
G05  24211869.671          13.000       33014.370       -4140.624
C39  36017355.504          14.000           0.000       -2118.251
G10  24150756.379          19.000      -22992.272         745.052
C20  23143311.619          31.000           0.000       -1019.917
G18  20531473.557          24.000       37449.376       -2207.629
G23  21527134.675          29.000        -791.403          45.325
G24  20278631.296          33.000           0.348       -2933.699
J03  35980639.622          41.000        6430.006       -2141.525
G29  25158531.511          11.000       49393.942       -4131.778
G32  24603847.111          19.000        5971.687        -193.136
C32  23663201.806          28.000       42313.238       -2486.578
R14  21485511.493          35.000           0.000        1450.114
R02  23645955.349          15.000           0.000       -3268.648
C37  22836668.603          31.000           0.000        -897.850
R18  20542354.827          23.000           0.000       -4205.944
R13  21137694.382          11.000           0.000       -1948.296
G25  24856971.477          13.000      -17283.061         656.167
C30  24184733.657          15.000           0.000       -4247.986
R17  22827171.481          14.000           0.000       -6134.866
C29  24331763.870          18.000           0.000       -2232.676
R03  21383546.981          31.000           0.000       -2333.094
R04  22049657.942          27.000           0.000       -1068.563
E33  24191528.154          25.000       62782.298       -3926.135
C06  35960084.352          26.000       55801.483       -1803.758
C08  35857871.612          34.000        8776.610       -1252.751
C09  36837849.987          21.000       50424.719       -1627.186
R19  21208356.064          16.000           0.000        -916.034
C13  36143640.378          32.000        7844.968       -1118.618
C16  36190351.941          21.000       59801.274       -1930.242
C27  26570077.018          19.000           0.000       -4606.514
C23  25065515.804          17.000      108306.740       -3505.850
C46  24535447.363          22.000      -31848.485        1173.180
C38  35928035.938          29.000           0.000       -1603.147
E04  26240882.115          16.000       28810.482        -960.097
E12  24433464.265          29.000       17860.590       -1118.915
E19  24852435.017          26.000       74138.366       -2554.712
G15  22325712.531          23.000       51196.008       -3938.184
> 2023 07 25 09 19 57.000001   0 37
G05  24212656.926          14.000       37155.206       -4141.124
C39  36017762.322          17.000           0.000       -2118.561
G10  24150607.382          24.000      -23737.944         745.996
C20  23143509.482          30.000           0.000       -1021.328
G18  20531895.065          23.000       39656.490       -2207.223
G23  21527126.281          34.000        -836.339          44.288
G24  20279188.910          35.000        2933.660       -2932.162
J03  35981044.941          42.000          -0.144       -2143.686
G29  25159321.164          12.000       53528.570       -4138.036
G32  24603883.686          19.000        6163.841        -191.293
C32  23663675.478          25.000       44799.604       -2487.032
R14  21485240.181          33.000           0.000        1449.703
R02  23646561.529          13.000           0.000       -3257.352
C37  22836837.087          32.000           0.000        -898.516
R18  20543088.119          19.000           0.000       -4166.697
R13  21138053.833          10.000           0.000       -1946.753
G25  24856849.761          13.000      -17937.866         650.439
C30  24185548.493          15.000           0.000       -4249.068
R17  22828314.590          17.000           0.000       -6135.823
C29  24332192.574          18.000           0.000       -2211.245
R03  21383984.379          27.000           0.000       -2335.133
R04  22049868.697          23.000           0.000       -1069.684
E33  24192272.838          25.000       66706.969       -3923.954
C06  35960432.710          24.000       57604.316       -1802.125
C08  35858110.547          36.000       10028.154       -1251.582
C09  36838166.568          20.000       52050.722       -1625.978
R19  21208524.547          15.000           0.000        -912.362
C13  36143854.130          34.000        8963.851       -1119.675
C16  36190718.887          23.000       61732.335       -1931.072
C27  26570962.306          18.000           0.000       -4605.632
C23  25066187.939          19.000      111812.363       -3504.068
C46  24535230.313          23.000      -33022.655        1175.564
C38  35928344.425          28.000           0.000       -1602.256
E04  26241065.588          16.000       29771.114        -961.489
E12  24433675.918          23.000       18979.474       -1119.127
E19  24852920.381          25.000       76692.512       -2555.284
G15  22326459.614          22.000       55132.418       -3936.063
> 2023 07 25 09 19 58.000001   0 37
G05  24213449.578          15.000       41297.213       -4144.399
C39  36018167.641          17.000           0.000       -2118.570
G10  24150458.985          26.000      -24484.782         747.606
C20  23143703.747          23.000           0.000       -1019.999
G18  20532315.074          31.000       41864.432       -2208.908
G23  21527117.587          29.000        -880.146          43.767
G24  20279742.027          33.000        5867.773       -2931.921
J03  35981446.963          37.000        2143.280       -2143.527
G29  25160111.118          11.000       57665.653       -4136.779
G32  24603916.963          19.000        6355.285        -191.442
C32  23664153.048          31.000       47286.518       -2487.386
R14  21484963.772          37.000           0.000        1448.612
R02  23647168.009          14.000           0.000       -3281.444
C37  22837010.666          32.000           0.000        -897.559
R18  20543853.789          10.000           0.000       -4162.376
R13  21138409.087           9.000           0.000       -1945.688
G25  24856730.144          13.000      -18587.921         645.933
C30  24186363.629          14.000           0.000       -4259.522
R17  22829460.996          18.000           0.000       -6135.748
C29  24332619.778          18.000           0.000       -2221.837
R03  21384419.378          23.000           0.000       -2335.966
R04  22050062.362          29.000           0.000       -1070.510
E33  24193011.826          22.000       70630.749       -3922.870
C06  35960780.470          28.000       59406.251       -1802.647
C08  35858353.978          36.000       11280.709       -1253.492
C09  36838482.249          19.000       53676.321       -1627.180
R19  21208698.127          15.000           0.000        -920.833
C13  36144069.681          30.000       10083.396       -1119.070
C16  36191090.929          27.000       63663.366       -1930.889
C27  26571853.289          20.000           0.000       -4606.083
C23  25066857.076          24.000      115316.147       -3503.129
C46  24535009.067          22.000      -34198.420        1173.959
C38  35928655.010          24.000           0.000       -1603.139
E04  26241246.363          17.000       30732.669        -961.659
E12  24433886.372          27.000       20098.766       -1119.498
E19  24853406.045          26.000       79247.540       -2556.133
G15  22327203.699          21.000       59068.834       -3936.208
> 2023 07 25 09 19 59.000001   0 36
G05  24214236.833          15.000       45443.526       -4148.870
C39  36018572.361          17.000           0.000       -2117.139
G10  24150313.286          26.000      -25232.359         747.622
C20  23143899.212          28.000           0.000       -1018.300
G18  20532738.081          30.000       44073.021       -2208.099
G23  21527110.392          27.000        -924.875          44.803
G24  20280299.940          31.000        8802.735       -2935.245
J03  35981856.779          33.000        4285.572       -2141.051
G29  25160898.073          12.000       61800.661       -4133.810
G32  24603953.537          19.000        6547.947        -195.066
C32  23664631.217          28.000       49774.420       -2488.102
R14  21484692.160          34.000           0.000        1446.711
R02  23647781.984          13.000           0.000       -3289.359
C37  22837186.345          31.000           0.000        -898.170
R18  20544653.335          17.000           0.000       -4163.127
R13  21138759.844           9.000           0.000       -1946.592
G25  24856609.028          14.000      -19233.599         646.246
C30  24187180.863          14.000           0.000       -4262.664
R17  22830608.901          19.000           0.000       -6136.134
C29  24333048.481          18.000           0.000       -2220.604
R03  21384859.173          26.000           0.000       -2336.282
R04  22050260.226          30.000           0.000       -1070.577
E33  24193755.612          26.000       74554.822       -3924.545
C06  35961127.929          27.000       61209.206       -1803.713
C08  35858590.215          36.000          -0.004       -1252.655
C09  36838797.331          18.000       55304.745       -1630.141
R19  21208869.608          16.000           0.000        -906.916
C13  36144285.232          31.000       11202.340       -1119.044
C16  36191463.271          24.000       65593.921       -1930.106
C27  26572740.075          24.000           0.000       -4607.401
C23  25067526.513          22.000      118819.576       -3503.167
C46  24534785.122          24.000      -35372.665        1175.869
C38  35928966.194          27.000           0.000       -1601.997
E04  26241428.937          16.000       31693.292        -959.047
E12  24434097.726          28.000       21218.530       -1120.497
E19  24853893.208          26.000       81804.416       -2556.635
> 2023 07 25 09 20 00.000001   0 36
G05  24215026.186          15.000       49594.081       -4152.499
C39  36018978.280          17.000           0.000       -2117.157
G10  24150175.381          23.000      -25979.728         746.887
C20  23144099.473          32.000           0.000       -1018.187
G18  20533160.189          31.000       46281.172       -2208.982
G23  21527101.698          28.000        -969.025          43.222
G24  20280861.452          28.000       11737.951       -2935.526
J03  35982270.492          42.000        6429.123       -2141.797
G29  25161687.726          12.000       65936.894       -4136.418
G32  24603991.911          18.000        6741.169        -189.097
C32  23665106.088          27.000       52263.089       -2488.399
R14  21484421.448          30.000           0.000        1447.436
R02  23648396.859          12.000           0.000       -3300.720
C37  22837361.424          35.000           0.000        -898.757
R18  20545430.098          19.000           0.000       -4164.084
R13  21139119.595           9.000           0.000       -1948.131
G25  24856486.113          15.000      -19879.395         645.052
C30  24187997.198          13.000           0.000       -4270.436
R17  22831752.310          20.000           0.000       -6136.224
C29  24333475.685          17.000           0.000       -2218.101
R03  21385299.568          23.000           0.000       -2336.844
R04  22050457.789          19.000           0.000       -1072.727
E33  24194504.493          28.000       78480.275       -3926.436
C06  35961475.389          23.000       63012.626       -1803.405
C08  35858830.648          35.000        1252.639       -1251.110
C09  36839111.214          16.000       56934.924       -1630.423
R19  21209039.590          17.000           0.000        -910.029
C13  36144497.785          32.000       12321.352       -1119.315
C16  36191833.215          25.000       67523.681       -1929.791
C27  26573625.962          20.000           0.000       -4608.616
C23  25068196.249          19.000      122321.422       -3501.698
C46  24534562.676          24.000      -36548.962        1176.867
C38  35929275.280          26.000           0.000       -1603.084
E04  26241608.213          16.000       32652.720        -959.847
E12  24434314.176          22.000       22338.927       -1120.591
E19  24854379.471          19.000       84357.790       -2552.842
> 2023 07 25 09 20 01.000001   0 36
G05  24215813.741          15.000       53744.387       -4146.741
C39  36019384.199          18.000           0.000       -2113.632
G10  24150034.779          24.000      -26725.011         744.797
C20  23144297.336          28.000           0.000       -1018.180
G18  20533577.200          26.000       48490.316       -2209.743
G23  21527088.507          29.000       -1012.365          43.157
G24  20281414.869          31.000       14673.797       -2935.983
J03  35982679.409          42.000        8571.774       -2144.674
G29  25162480.377          13.000       70076.827       -4142.373
G32  24604025.787          18.000        6930.570        -190.372
C32  23665586.955          29.000       54751.222       -2487.677
R14  21484149.836          35.000           0.000        1447.953
R02  23649008.435          11.000           0.000       -3300.550
C37  22837539.800          32.000           0.000        -900.536
R18  20546210.458          19.000           0.000       -4165.808
R13  21139481.744           9.000           0.000       -1949.375
G25  24856362.298          15.000      -20527.223         650.401
C30  24188812.334          15.000           0.000       -4256.365
R17  22832900.215          20.000           0.000       -6136.656
C29  24333902.890          17.000           0.000       -2221.196
R03  21385741.162          23.000           0.000       -2336.892
R04  22050658.050          21.000           0.000       -1070.771
E33  24195252.475          26.000       82407.174       -3927.198
C06  35961822.249          25.000       64816.573       -1804.939
C08  35859072.581          36.000        2505.180       -1252.857
C09  36839426.596          17.000       58562.957       -1627.156
R19  21209211.671          15.000           0.000        -910.016
C13  36144711.537          29.000       13440.967       -1119.113
C16  36192199.262          23.000       69453.525       -1929.742
C27  26574510.349          18.000           0.000       -4608.903
C23  25068864.186          23.000      125822.821       -3501.200
C46  24534339.330          21.000      -37727.407        1178.982
C38  35929582.867          31.000           0.000       -1604.624
E04  26241785.990          16.000       33612.660        -960.365
E12  24434530.327          25.000       23459.691       -1120.959
E19  24854866.634          27.000       86913.185       -2555.631
> 2023 07 25 09 20 02.000001   0 36
G05  24216600.996          14.000       57890.406       -4146.013
C39  36019788.020          17.000           0.000       -2112.863
G10  24149890.878          23.000      -27470.271         745.561
C20  23144497.898          27.000           0.000       -1018.625
G18  20533998.109          27.000       50700.281       -2210.088
G23  21527078.913          28.000       -1056.704          44.386
G24  20281969.485          30.000       17609.498       -2935.354
J03  35983085.628          39.000       10715.390       -2142.682
G29  25163272.129          14.000       74218.497       -4141.509
G32  24604062.062          18.000        7121.735        -192.339
C32  23666065.424          28.000       57238.426       -2487.172
R14  21483877.324          34.000           0.000        1448.466
R02  23649622.410          12.000           0.000       -3300.108
C37  22837707.384          34.000           0.000        -899.041
R18  20546990.218          19.000           0.000       -4167.049
R13  21139843.594           9.000           0.000       -1958.036
G25  24856236.086          15.000      -21178.600         653.421
C30  24189625.071          15.000           0.000       -4254.142
R17  22834048.420          19.000           0.000       -6137.593
C29  24334333.092          18.000           0.000       -2231.989
R03  21386177.960          26.000           0.000       -2337.383
R04  22050851.116          25.000           0.000       -1064.630
E33  24196000.757          26.000       86336.098       -3929.534
C06  35962170.308          23.000       66621.745       -1806.039
C08  35859311.815          36.000        3757.117       -1253.363
C09  36839737.181          17.000       60189.795       -1626.739
R19  21209388.549          16.000           0.000        -913.538
C13  36144926.188          36.000       14559.606       -1118.706
C16  36192571.004          24.000       71383.884       -1930.617
C27  26575395.337          17.000           0.000       -4606.919
C23  25069531.824          24.000      129324.272       -3502.123
C46  24534116.585          24.000      -38906.867        1179.551
C38  35929891.953          28.000           0.000       -1605.054
E04  26241964.066          17.000       34572.668        -960.079
E12  24434743.779          27.000       24580.251       -1120.603
E19  24855352.897          30.000       89469.089       -2557.394
> 2023 07 25 09 20 03.000001   0 36
G05  24217389.450          13.000       62036.660       -4145.979
C39  36020191.840          17.000           0.000       -2118.353
G10  24149745.779          25.000      -28215.938         745.764
C20  23144703.555          26.000           0.000       -1018.889
G18  20534422.015          26.000       52911.268       -2211.780
G23  21527070.219          36.000       -1100.928          43.722
G24  20282528.598          42.000       20545.712       -2936.885
J03  35983485.252          34.000       12858.675       -2141.917
G29  25164059.084          13.000       78360.312       -4141.554
G32  24604111.528          20.000        7314.737        -193.830
C32  23666550.488          27.000       59726.034       -2488.136
R14  21483611.109          32.000           0.000        1446.302
R02  23650234.886           9.000           0.000       -3283.942
C37  22837879.765          35.000           0.000        -901.098
R18  20547772.976          19.000           0.000       -4168.278
R13  21140202.146          12.000           0.000       -1947.944
G25  24856110.773          15.000      -21832.721         654.707
C30  24190436.909          18.000           0.000       -4248.533
R17  22835199.623          19.000           0.000       -6137.424
C29  24334762.694          18.000           0.000       -2225.245
R03  21386614.758          26.000           0.000       -2337.042
R04  22051040.585          19.000           0.000       -1066.154
E33  24196750.538          23.000       90265.030       -3927.508
C06  35962517.767          24.000       68427.745       -1805.666
C08  35859546.552          30.000        5010.358       -1253.607
C09  36840048.665          19.000       61815.890       -1625.781
R19  21209561.229          16.000           0.000        -928.627
C13  36145142.039          39.000       15678.487       -1119.472
C16  36192940.349          23.000       73316.124       -1932.219
C27  26576284.821          18.000           0.000       -4606.225
C23  25070201.261          26.000      132826.871       -3502.902
C46  24533896.237          21.000      -40086.436        1178.537
C38  35930202.239          31.000           0.000       -1604.052
E04  26242139.745          18.000       35533.476        -961.763
E12  24434956.032          30.000       25701.246       -1121.169
E19  24855837.062          27.000       92025.804       -2554.463
> 2023 07 25 09 20 04.000001   0 36
G05  24218172.508          12.000       66182.188       -4146.658
C39  36020595.661          18.000           0.000       -2118.859
G10  24149602.778          27.000      -28961.743         745.736
C20  23144902.617          29.000           0.000       -1018.542
G18  20534843.224          31.000       55123.349       -2212.674
G23  21527061.525          35.000       -1144.732          43.746
G24  20283093.107          40.000       23483.206       -2937.906
J03  35983889.372          33.000       15001.762       -2143.424
G29  25164846.639          12.000       82502.406       -4142.389
G32  24604159.495          20.000        7508.275        -193.119
C32  23667026.259          30.000       62214.705       -2489.672
R14  21483344.893          31.000           0.000        1446.602
R02  23650848.861          10.000           0.000       -3288.804
C37  22838055.443          37.000           0.000        -901.463
R18  20548556.933          20.000           0.000       -4168.534
R13  21140562.796          13.000           0.000       -1941.099
G25  24855985.160          13.000      -22486.807         653.111
C30  24191247.848          18.000           0.000       -4256.628
R17  22836343.931          18.000           0.000       -6138.282
C29  24335193.196          17.000           0.000       -2237.720
R03  21387054.553          29.000           0.000       -2336.271
R04  22051230.054          18.000           0.000       -1060.720
E33  24197505.715          27.000       94192.122       -3927.732
C06  35962866.725          24.000       70232.267       -1803.839
C08  35859784.888          32.000        6263.154       -1253.731
C09  36840361.948          25.000       63441.402       -1625.394
R19  21209732.411          16.000           0.000        -924.793
C13  36145359.388          37.000       16797.550       -1119.804
C16  36193310.293          26.000       75248.653       -1932.236
C27  26577172.506          19.000           0.000       -4607.351
C23  25070865.001          27.000      136330.090       -3504.647
C46  24533675.890          20.000      -41264.639        1177.368
C38  35930511.325          30.000           0.000       -1604.313
E04  26242317.821          19.000       36495.097        -962.168
E12  24435167.685          30.000       26822.865       -1121.237
E19  24856319.428          25.000       94581.136       -2554.805
> 2023 07 25 09 20 05.000001   0 36
G05  24218959.763          10.000       70328.419       -4146.314
C39  36021000.380          17.000           0.000       -2120.518
G10  24149456.479          26.000      -29707.548         746.017
C20  23145100.181          30.000           0.000       -1018.582
G18  20535264.732          27.000       57336.140       -2212.733
G23  21527052.232          30.000       -1188.350          43.629
G24  20283660.014          38.000          -0.786       -2939.481
J03  35984308.482          35.000       17144.922       -2143.454
G29  25165633.894           9.000       86645.143       -4142.692
G32  24604199.967          20.000        7703.100        -196.343
C32  23667509.824          22.000       64704.396       -2489.766
R14  21483074.180          33.000           0.000        1446.717
R02  23651462.836          12.000           0.000       -3291.942
C37  22838229.922          38.000           0.000        -901.561
R18  20549336.094          19.000           0.000       -4171.150
R13  21140926.144          13.000           0.000       -1934.383
G25  24855862.245          12.000      -23142.787         658.507
C30  24192060.585          18.000           0.000       -4252.777
R17  22837491.836          17.000           0.000       -6138.025
C29  24335626.097          17.000           0.000       -2234.062
R03  21387487.454          29.000           0.000       -2336.168
R04  22051428.817          20.000           0.000       -1065.249
E33  24198255.796          26.000       98119.730       -3928.205
C06  35963211.187          17.000       72035.908       -1801.941
C08  35860034.015          35.000        7515.885       -1253.351
C09  36840677.929          19.000       65068.528       -1627.667
R19  21209906.590          16.000           0.000        -912.404
C13  36145574.040          35.000           0.704       -1119.723
C16  36193679.037          23.000       77181.628       -1933.371
C27  26578054.496          20.000           0.000       -4603.821
C23  25071532.939          21.000      139835.329       -3504.490
C46  24533455.842          24.000      -42442.365        1177.775
C38  35930818.312          29.000           0.000       -1603.351
E04  26242497.097          19.000       37458.027        -962.059
E12  24435380.838          27.000       27944.107       -1123.042
E19  24856803.593          21.000       97136.155       -2554.356
> 2023 07 25 09 20 06.000001   0 36
G05  24219743.720           9.000       74475.065       -4147.671
C39  36021404.201          17.000           0.000       -2120.659
G10  24149309.881          25.000      -30453.708         745.846
C20  23145296.844          31.000           0.000       -1018.984
G18  20535683.542          20.000       59549.084       -2213.397
G23  21527042.039          30.000       -1232.126          43.808
G24  20284222.425          37.000        2939.360       -2939.869
J03  35984716.799          38.000       19288.024       -2144.477
G29  25166422.049           9.000       90788.779       -4144.279
G32  24604240.439          19.000        7902.010        -200.484
C32  23667987.393          25.000       67193.759       -2488.678
R14  21482813.960          31.000           0.000        1444.432
R02  23652073.813          12.000           0.000       -3273.978
C37  22838401.104          37.000           0.000        -900.298
R18  20550117.353          18.000           0.000       -4171.896
R13  21141283.797          11.000           0.000       -1923.787
G25  24855738.730          10.000      -23804.961         664.657
C30  24192870.924          17.000           0.000       -4242.900
R17  22838639.142          17.000           0.000       -6138.339
C29  24336061.095          17.000           0.000       -2235.494
R03  21387921.853          26.000           0.000       -2335.798
R04  22051634.174          21.000           0.000       -1072.227
E33  24199002.579          24.000      102047.995       -3927.960
C06  35963557.147          16.000       73837.240       -1800.495
C08  35860276.247          34.000        8770.016       -1252.500
C09  36840994.810          20.000       66695.083       -1626.254
R19  21210076.573          17.000           0.000        -907.683
C13  36145789.591          36.000        1119.610       -1117.502
C16  36194046.883          21.000       79113.474       -1930.237
C27  26578936.485          20.000           0.000       -4604.125
C23  25072192.482          19.000      143339.448       -3504.562
C46  24533227.700          17.000      -43619.315        1176.709
C38  35931124.100          32.000           0.000       -1603.476
E04  26242677.572          18.000       38418.696        -956.226
E12  24435592.791          27.000       29067.687       -1125.000
E19  24857289.856          22.000       99690.729       -2553.269
> 2023 07 25 09 20 07.000001   0 36
G05  24220530.076           9.000       78622.883       -4148.317
C39  36021808.921          17.000           0.000       -2120.073
G10  24149159.685          16.000      -31199.530         746.190
C20  23145490.510          28.000           0.000       -1017.822
G18  20536103.252          25.000       61762.800       -2214.048
G23  21527033.045          28.000       -1275.932          43.640
G24  20284780.938          28.000        5879.071       -2939.659
J03  35985121.819          37.000       21431.355       -2143.767
G29  25167210.503           9.000       94933.586       -4144.669
G32  24604282.710          19.000        8102.622        -201.108
C32  23668459.866          23.000       69681.620       -2487.861
R14  21482544.747          25.000           0.000        1445.864
R02  23652684.790          12.000           0.000       -3278.786
C37  22838570.786          34.000           0.000        -902.200
R18  20550894.715          19.000           0.000       -4171.532
R13  21141637.552          11.000           0.000       -1909.443
G25  24855612.817           9.000      -24475.100         673.554
C30  24193678.265          17.000           0.000       -4240.060
R17  22839778.953          16.000           0.000       -6137.195
C29  24336492.197          16.000           0.000       -2223.945
R03  21388358.650          22.000           0.000       -2335.461
R04  22051826.641          20.000           0.000       -1071.946
E33  24199749.062          25.000      105976.617       -3929.029
C06  35963899.810          18.000       75637.447       -1800.016
C08  35860516.981          26.000       10022.758       -1252.826
C09  36841308.693          17.000       68322.137       -1627.912
R19  21210243.857          16.000           0.000        -906.190
C13  36146003.642          32.000        2238.688       -1119.537
C16  36194416.527          17.000       81042.329       -1928.541
C27  26579819.074          20.000           0.000       -4605.838
C23  25072858.621          18.000      146844.937       -3505.329
C46  24532995.960          18.000      -44796.559        1176.436
C38  35931430.788          24.000           0.000       -1603.212
E04  26242856.848          17.000       39374.726        -958.793
E12  24435804.744          24.000       30194.184       -1126.259
E19  24857778.518          23.000      102243.630       -2555.691
> 2023 07 25 09 20 08.000001   0 36
G05  24221320.029           9.000       82770.866       -4148.515
C39  36022213.940          18.000           0.000       -2118.489
G10  24149017.583          20.000      -31943.969         739.560
C20  23145683.577          30.000           0.000       -1018.276
G18  20536517.265          23.000       63977.087       -2214.850
G23  21527027.049          32.000       -1319.691          43.770
G24  20285339.152          38.000        8818.795       -2939.898
J03  35985531.935          38.000       23574.018       -2142.682
G29  25167995.659           9.000       99079.004       -4144.898
G32  24604318.984          18.000        8303.989        -201.704
C32  23668933.838          24.000       72168.770       -2487.381
R14  21482268.938          33.000           0.000        1445.608
R02  23653294.568          13.000           0.000       -3282.688
C37  22838741.368          35.000           0.000        -897.650
R18  20551672.976          19.000           0.000       -4171.873
R13  21141996.403          10.000           0.000       -1897.996
G25  24855485.106          11.000      -25150.465         676.477
C30  24194487.405          16.000           0.000       -4236.083
R17  22840928.657          15.000           0.000       -6137.811
C29  24336925.697          18.000           0.000       -2236.418
R03  21388792.750          27.000           0.000       -2335.630
R04  22052020.607          27.000           0.000       -1068.388
E33  24200497.045          27.000      109904.397       -3927.474
C06  35964245.171          20.000       77438.201       -1801.758
C08  35860757.714          36.000       11275.458       -1252.882
C09  36841623.175          20.000       69950.668       -1627.918
R19  21210413.839          15.000           0.000        -905.319
C13  36146218.294          37.000        3358.232       -1120.171
C16  36194783.473          25.000       82972.060       -1929.858
C27  26580702.563          20.000           0.000       -4604.714
C23  25073529.257          20.000      150350.046       -3504.425
C46  24532769.317          24.000      -45972.877        1175.708
C38  35931737.176          29.000           0.000       -1604.408
E04  26243037.024          15.000       40334.550        -961.624
E12  24436020.595          30.000       31319.075       -1123.708
E19  24858266.580          26.000      104800.169       -2556.335
> 2023 07 25 09 20 09.000001   0 36
G05  24222104.586           9.000       86920.120       -4150.301
C39  36022620.159          16.000           0.000       -2118.359
G10  24148866.787          18.000      -32688.853         745.863
C20  23145874.844          29.000           0.000       -1018.127
G18  20536932.477          25.000       66192.278       -2215.558
G23  21527021.353          24.000       -1364.786          45.617
G24  20285894.368          38.000       11758.834       -2940.505
J03  35985935.455          37.000       25717.173       -2142.967
G29  25168784.413           9.000      103224.316       -4146.629
G32  24604357.358          24.000        8503.772        -198.620
C32  23669403.013          26.000       74656.149       -2487.127
R14  21481994.927          34.000           0.000        1446.076
R02  23653908.543          13.000           0.000       -3289.556
C37  22838918.845          24.000           0.000        -900.560
R18  20552454.235          18.000           0.000       -4172.464
R13  21142349.259           9.000           0.000       -1899.171
G25  24855354.396          15.000      -25826.829         676.382
C30  24195299.243          15.000           0.000       -4251.758
R17  22842074.464          15.000           0.000       -6138.747
C29  24337362.495          24.000           0.000       -2240.937
R03  21389224.751          25.000           0.000       -2335.260
R04  22052218.770          30.000           0.000       -1067.761
E33  24201242.928          24.000      113832.256       -3927.586
C06  35964591.431          26.000       79240.673       -1803.018
C08  35860999.347          39.000       12528.447       -1252.953
C09  36841937.357          20.000       71578.282       -1626.788
R19  21210583.522          14.000           0.000        -888.934
C13  36146432.046          30.000        4477.907       -1119.542
C16  36195157.014          15.000       84903.978       -1932.359
C27  26581584.252          20.000           0.000       -4606.361
C23  25074202.291          24.000      153853.914       -3503.516
C46  24532539.077          26.000      -47148.584        1175.180
C38  35932044.463          19.000           0.000       -1605.900
E04  26243219.297          16.000       41296.818        -963.028
E12  24436236.446          25.000       32443.734       -1125.079
E19  24858754.942          27.000      107355.886       -2555.695
> 2023 07 25 09 20 10.000001   0 36
G05  24222888.543           9.000       91071.059       -4151.861
C39  36023026.078          16.000           0.000       -2118.214
G10  24148721.388          18.000      -33435.480         747.539
C20  23146063.414          27.000           0.000       -1017.111
G18  20537353.386          27.000       68407.896       -2215.973
G23  21527010.261          21.000       -1409.819          44.605
G24  20286448.384          38.000       14699.535       -2941.084
J03  35986341.974          33.000       27860.131       -2145.264
G29  25169573.167           9.000      107370.627       -4146.717
G32  24604394.232          23.000        8700.560        -195.595
C32  23669873.088          24.000       77142.494       -2486.676
R14  21481718.519          38.000           0.000        1446.166
R02  23654517.122          12.000           0.000       -3287.971
C37  22839099.021          26.000           0.000        -902.794
R18  20553228.899          19.000           0.000       -4172.340
R13  21142701.815           9.000           0.000       -1894.187
G25  24855224.886          16.000      -26501.281         672.462
C30  24196114.978          17.000           0.000       -4266.386
R17  22843215.774          16.000           0.000       -6139.320
C29  24337798.393          24.000           0.000       -2247.457
R03  21389658.551          28.000           0.000       -2335.028
R04  22052415.733          30.000           0.000       -1069.360
E33  24201992.110          28.000      117761.300       -3930.968
C06  35964936.792          30.000       81043.549       -1803.808
C08  35861241.879          38.000       13781.302       -1252.902
C09  36842253.339          21.000       73205.139       -1626.381
R19  21210743.011          13.000           0.000        -871.526
C13  36146646.098          31.000        5597.202       -1119.141
C16  36195531.455          20.000       86836.807       -1932.449
C27  26582464.743          24.000           0.000       -4604.532
C23  25074878.923          24.000      157358.351       -3505.132
C46  24532307.637          26.000      -48325.581        1177.867
C38  35932351.751          18.000           0.000       -1605.085
E04  26243400.372          25.000       42259.697        -962.811
E12  24436449.898          25.000       33568.384       -1123.634
E19  24859240.906          23.000      109911.090       -2556.651
> 2023 07 25 09 20 11.000001   0 36
G05  24223678.796           9.000       95223.015       -4152.662
C39  36023432.896          17.000           0.000       -2122.535
G10  24148578.987          18.000      -34183.688         750.205
C20  23146252.583          26.000           0.000       -1015.885
G18  20537775.194          27.000       70623.440       -2214.424
G23  21527000.368          27.000       -1454.582          46.106
G24  20287005.698          38.000           0.426       -2939.593
J03  35986746.394          31.000       30001.251       -2137.997
G29  25170362.221           9.000      111517.208       -4146.932
G32  24604429.308          22.000        8896.479        -195.916
C32  23670347.360          23.000       79629.581       -2487.005
R14  21481443.309          40.000           0.000        1447.972
R02  23655125.101          12.000           0.000       -3285.998
C37  22839277.097          31.000           0.000        -901.724
R18  20554012.256          19.000           0.000       -4171.849
R13  21143048.675           9.000           0.000       -1899.789
G25  24855094.176          17.000      -27172.609         671.448
C30  24196930.114          17.000           0.000       -4263.236
R17  22844359.182          15.000           0.000       -6139.901
C29  24338235.790          21.000           0.000       -2242.409
R03  21390092.350          29.000           0.000       -2333.149
R04  22052619.892          29.000           0.000       -1063.726
E33  24202742.190          26.000      121691.837       -3930.253
C06  35965283.352          30.000       82846.435       -1802.351
C08  35861482.013          38.000           0.516       -1249.747
C09  36842566.322          21.000       74831.478       -1626.231
R19  21210911.794          12.000           0.000        -861.874
C13  36146861.049          30.000        6716.024       -1118.030
C16  36195902.898          23.000       88767.727       -1929.633
C27  26583346.432          24.000           0.000       -4603.446
C23  25075557.353          25.000      160862.718       -3503.802
C46  24532076.497          25.000      -49503.388        1178.631
C38  35932659.637          17.000           0.000       -1604.609
E04  26243580.847          25.000       43222.172        -961.454
E12  24436661.551          24.000       34688.486       -1119.412
E19  24859727.169          24.000      112469.017       -2557.333
> 2023 07 25 09 20 12.000001   0 37
G05  24224466.351           9.000       99375.404       -4152.696
C39  36023839.715          17.000           0.000       -2117.401
G10  24148440.483          19.000      -34935.013         752.703
C20  23146440.852          24.000           0.000       -1014.302
G18  20538195.203          27.000       72837.535       -2213.458
G23  21526988.676          26.000       -1501.382          47.450
G24  20287567.509          39.000        2939.377       -2938.894
J03  35987155.311          29.000       32141.474       -2141.922
G29  25171149.476           9.000      115663.641       -4145.851
G32  24604471.579          15.000        9091.774        -195.173
C32  23670817.734          26.000       82115.579       -2485.348
R14  21481150.112          39.000           0.000        1447.969
R02  23655738.476           9.000           0.000       -3284.639
C37  22839453.675          33.000           0.000        -900.342
R18  20554801.310          19.000           0.000       -4171.652
R13  21143400.631           9.000           0.000       -1894.982
G25  24854967.364          17.000      -27842.990         671.033
C30  24197744.950          18.000           0.000       -4256.667
R17  22845504.689          15.000           0.000       -6141.262
C29  24338667.491          21.000           0.000       -2238.328
R03  21390522.552          30.000           0.000       -2331.580
R04  22052829.147          26.000           0.000       -1064.067
E33  24203491.671          25.000      125621.144       -3928.018
C06  35965629.913          30.000       84647.981       -1801.317
C08  35861723.645          38.000        1250.163       -1250.027
C09  36842882.303          21.000       76457.284       -1626.026
R19  21211069.485          10.000           0.000        -856.568
C13  36147076.899          32.000        7832.408       -1115.720
C16  36196277.339          19.000       90697.227       -1928.983
C27  26584222.726          22.000           0.000       -4602.325
C23  25076237.582          26.000      164365.983       -3503.159
C46  24531841.460          24.000      -50683.328        1182.021
C38  35932969.623          17.000           0.000       -1602.638
E21  26743266.522          19.000           0.000         -78.517
E04  26243761.922          23.000       44182.599        -959.464
E12  24436872.305          24.000       35808.751       -1120.997
E19  24860212.233          25.000      115023.777       -2553.175
> 2023 07 25 09 20 13.000001   0 37
G05  24225256.304           9.000      103528.033       -4153.214
C39  36024246.233          16.000           0.000       -2116.456
G10  24148299.280          18.000      -35687.771         752.353
C20  23146628.822          28.000           0.000       -1013.937
G18  20538616.412          26.000       75051.180       -2214.800
G23  21526977.284          29.000       -1548.777          46.401
G24  20288131.119          38.000        5880.246       -2942.885
J03  35987560.930          29.000       34281.809       -2140.645
G29  25171937.930           9.000      119810.025       -4146.746
G32  24604516.548          18.000        9289.685        -198.900
C32  23671291.106          28.000       84600.223       -2484.682
R14  21480871.305          38.000           0.000        1447.294
R02  23656350.053          11.000           0.000       -3285.259
C37  22839627.855          31.000           0.000        -903.074
R18  20555578.372          20.000           0.000       -4172.686
R13  21143748.690          10.000           0.000       -1892.929
G25  24854839.653          18.000      -28514.296         669.413
C30  24198557.387          18.000           0.000       -4259.833
R17  22846650.496          15.000           0.000       -6141.946
C29  24339102.490          25.000           0.000       -2236.988
R03  21390953.954          32.000           0.000       -2331.933
R04  22053048.895          25.000           0.000       -1069.357
E33  24204243.551          25.000      129549.171       -3929.854
C06  35965975.873          29.000       86449.079       -1801.613
C08  35861958.683          37.000        2501.137       -1254.039
C09  36843195.886          24.000       78082.280       -1625.754
R19  21211226.277           9.000           0.000        -871.618
C13  36147293.050          36.000        8947.972       -1115.879
C16  36196651.480          19.000       92625.525       -1924.413
C27  26585102.916          21.000           0.000       -4601.185
C23  25076914.813          28.000      167868.753       -3502.444
C46  24531613.317          24.000      -51865.245        1181.240
C38  35933276.310          24.000           0.000       -1601.824
E21  26743222.153          13.000           0.315         -80.267
E04  26243944.195          20.000       45141.389        -958.921
E12  24437083.659          27.000       36928.614       -1119.670
E19  24860697.297          29.000      117575.297       -2550.908
> 2023 07 25 09 20 14.000001   0 37
G05  24226045.957           9.000      107680.545       -4152.248
C39  36024652.452          18.000           0.000       -2118.189
G10  24148157.778          19.000      -36438.398         748.657
C20  23146824.887          27.000           0.000       -1015.006
G18  20539046.014          26.000       77267.090       -2217.477
G23  21526970.389          35.000       -1593.958          43.747
G24  20288693.530          41.000        8824.218       -2944.056
J03  35987968.048          32.000       36423.583       -2142.928
G29  25172726.984           9.000      123957.213       -4147.076
G32  24604555.221          17.000        9492.653        -203.892
C32  23671771.374          28.000       87085.135       -2485.810
R14  21480609.886          35.000           0.000        1444.238
R02  23656960.730          10.000           0.000       -3292.356
C37  22839787.644          35.000           0.000        -906.785
R18  20556362.330          20.000           0.000       -4174.470
R13  21144098.248           9.000           0.000       -1911.047
G25  24854711.641          17.000      -29186.591         673.239
C30  24199371.923          18.000           0.000       -4260.516
R17  22847796.303          14.000           0.000       -6143.710
C29  24339537.189          22.000           0.000       -2239.040
R03  21391393.150          29.000           0.000       -2334.259
R04  22053244.959          23.000           0.000       -1071.384
E33  24204998.428          24.000      133478.575       -3929.728
C06  35966320.934          26.000       88251.048       -1802.974
C08  35862199.716          34.000        3754.692       -1253.991
C09  36843512.467          23.000       79709.356       -1627.075
R19  21211387.865           9.000           0.000        -891.662
C13  36147505.902          41.000       10066.950       -1120.782
C16  36197022.023          23.000       94551.942       -1928.744
C27  26585983.407          16.000           0.000       -4600.784
C23  25077585.449          21.000      171372.338       -3506.197
C46  24531394.169          26.000      -53045.124        1177.782
C38  35933582.998          27.000           0.000       -1603.514
E21  26743125.320          10.000          78.774         -81.215
E04  26244127.668          21.000       46101.496        -961.878
E12  24437300.109          33.000       38052.355       -1126.665
E19  24861183.861          30.000      120127.703       -2554.121
> 2023 07 25 09 20 15.000001   0 38
G05  24226832.313           9.000      111832.882       -4152.133
C39  36025059.570          19.000           0.000       -2120.680
G10  24148007.582          18.000      -37184.234         742.840
C20  23147022.150          26.000           0.000       -1018.257
G12  24320589.406          21.000           0.000         339.557
G18  20539475.317          27.000       79486.192       -2220.503
G23  21526963.193          35.000       -1636.754          41.671
G24  20289255.341          42.000       11769.957       -2945.782
J03  35988376.965          30.000       38566.933       -2144.450
G29  25173514.239           9.000      128104.798       -4147.701
G32  24604597.492          16.000        9696.022        -204.867
C32  23672253.440          29.000       89572.809       -2488.398
R14  21480351.165          33.000           0.000        1442.228
R02  23657569.908          12.000           0.000       -3295.895
C37  22839953.729          36.000           0.000        -908.204
R18  20557141.490          19.000           0.000       -4176.690
R13  21144452.004           9.000           0.000       -1914.427
G25  24854587.227          16.000      -29855.435         668.341
C30  24200184.061          18.000           0.000       -4252.806
R17  22848941.810          12.000           0.000       -6145.457
C29  24339969.190          21.000           0.000       -2241.008
R03  21391827.249          27.000           0.000       -2336.059
R04  22053439.824          25.000           0.000       -1072.953
E33  24205751.807          28.000      137409.585       -3933.137
C06  35966667.194          28.000       90054.777       -1804.000
C08  35862436.852          33.000        5009.419       -1256.079
C09  36843823.352          24.000       81337.131       -1629.465
R19  21211564.443           9.000           0.000        -922.039
C13  36147721.753          43.000           0.626       -1121.954
C16  36197393.166          27.000       96482.068       -1932.587
C27  26586865.396          17.000           0.000       -4600.455
C23  25078256.984          23.000      174879.808       -3509.195
C46  24531173.822          28.000      -54222.059        1175.794
C38  35933889.386          34.000           0.000       -1605.163
E21  26743178.083          11.000         164.708         -87.147
E04  26244315.339          18.000       47064.252        -963.806
E12  24437518.058          33.000       39179.550       -1127.602
E19  24861672.222          33.000      122682.648       -2556.478
> 2023 07 25 09 20 16.000001   0 38
G05  24227624.065           9.000      115984.047       -4151.322
C39  36025466.688          19.000           0.000       -2122.330
G10  24147874.474          17.000      -37924.953         741.129
C20  23147217.914          28.000           0.000       -1019.829
G12  24320524.351          14.000          -0.320         342.419
G18  20539908.217          24.000       81707.520       -2222.160
G23  21526961.095          35.000       -1677.597          40.063
G24  20289813.554          40.000       14716.685       -2947.412
J03  35988787.381          31.000       40712.736       -2146.439
G29  25174301.794           9.000      132252.964       -4148.417
G32  24604637.664          16.000        9901.123        -200.890
C32  23672735.806          29.000       92061.707       -2489.942
R14  21480084.350          35.000           0.000        1440.721
R02  23658178.187          10.000           0.000       -3299.367
C37  22840122.812          34.000           0.000        -908.422
R18  20557929.045          20.000           0.000       -4178.084
R13  21144794.966          10.000           0.000       -1905.145
G25  24854462.813          16.000      -30528.000         672.855
C30  24200997.098          18.000           0.000       -4258.545
R17  22850081.021          12.000           0.000       -6146.194
C29  24340398.493          22.000           0.000       -2242.359
R03  21392261.349          27.000           0.000       -2337.320
R04  22053633.490          27.000           0.000       -1072.196
E33  24206499.489          27.000      141342.969       -3932.700
C06  35967013.155          28.000       91860.468       -1806.625
C08  35862680.283          34.000        6264.572       -1255.967
C09  36844136.335          25.000       82967.557       -1630.566
R19  21211748.515          12.000           0.000        -933.590
C13  36147937.004          43.000        1122.027       -1121.015
C16  36197764.009          23.000       98416.892       -1936.118
C27  26587748.585          17.000           0.000       -4604.290
C23  25078933.316          24.000      178390.048       -3511.345
C46  24530953.174          27.000      -55397.383        1174.897
C38  35934202.369          34.000           0.000       -1605.963
E21  26743192.773          11.000         249.373         -83.971
E04  26244503.608          16.000       48028.618        -965.216
E12  24437736.007          33.000       40307.639       -1129.578
E19  24862159.685          34.000      125240.679       -2558.606
> 2023 07 25 09 20 17.000001   0 38
G05  24228409.221           9.000      120135.532       -4151.434
C39  36025874.106          19.000           0.000       -2122.693
G10  24147734.771          18.000      -38667.664         743.372
C20  23147414.279          27.000           0.000       -1020.150
G12  24320453.600           9.000        -345.676         345.909
G18  20540334.822          25.000       83930.041       -2222.785
G23  21526955.699          35.000          -0.155          41.234
G24  20290375.965          41.000       17663.975       -2947.583
J03  35989198.996          34.000       42859.056       -2145.935
G29  25175090.547           9.000      136401.012       -4148.252
G32  24604676.337          17.000       10101.869        -199.687
C32  23673217.273          28.000       94551.437       -2489.121
R14  21479818.134          40.000           0.000        1440.592
R02  23658791.862          11.000           0.000       -3288.961
C37  22840299.989          34.000           0.000        -906.437
R18  20558699.212          20.000           0.000       -4184.575
R13  21145146.023          12.000           0.000       -1904.732
G25  24854334.502          14.000      -31204.318         670.996
C30  24201812.834          18.000           0.000       -4258.989
R17  22851231.025          10.000           0.000       -6146.705
C29  24340828.695          26.000           0.000       -2243.177
R03  21392691.851          26.000           0.000       -2337.441
R04  22053826.257          28.000           0.000       -1071.259
E33  24207245.073          26.000      145274.403       -3931.826
C06  35967359.415          25.000       93667.085       -1807.144
C08  35862921.016          34.000        7519.759       -1255.007
C09  36844449.019          23.000       84597.662       -1628.635
R19  21211936.785          16.000           0.000        -949.068
C13  36148153.154          42.000        2243.325       -1120.935
C16  36198136.352          26.000      100353.441       -1936.831
C27  26588632.373          17.000           0.000       -4605.869
C23  25079608.748          24.000      181900.781       -3511.342
C46  24530729.230          27.000      -56572.730        1175.450
C38  35934515.353          34.000           0.000       -1605.682
E21  26743216.157          11.000         333.350         -85.354
E04  26244685.582          16.000       48993.762        -964.843
E12  24437950.359          32.000          -0.032       -1127.998
E19  24862646.248          35.000      127797.667       -2557.861
> 2023 07 25 09 20 18.000001   0 38
G05  24229201.273          11.000      124286.474       -4150.398
C39  36026282.424          19.000           0.000       -2121.786
G10  24147595.667          23.000      -39412.810         745.698
C20  23147610.043          29.000           0.000       -1020.606
G12  24320388.246           9.000        -691.798         345.645
G18  20540762.626          22.000       86152.979       -2223.080
G23  21526947.304          35.000         -41.584          40.172
G24  20290936.277          41.000       20611.653       -2947.503
J03  35989610.311          35.000           0.494       -2145.245
G29  25175876.004          10.000      140549.302       -4148.059
G32  24604715.010          17.000       10301.421        -200.412
C32  23673698.140          28.000       97040.672       -2489.539
R14  21479547.722          41.000           0.000        1440.863
R02  23659404.038          10.000           0.000       -3287.212
C37  22840478.666          34.000           0.000        -909.492
R18  20559466.680          20.000           0.000       -4181.983
R13  21145497.380          10.000           0.000       -1892.273
G25  24854212.187          12.000      -31874.839         673.836
C30  24202627.070          17.000           0.000       -4271.565
R17  22852367.238           9.000           0.000       -6148.310
C29  24341260.396          27.000           0.000       -2244.008
R03  21393122.652          24.000           0.000       -2336.888
R04  22054021.721          30.000           0.000       -1069.817
E33  24207991.856          27.000      149208.094       -3934.960
C06  35967707.774          27.000       95474.120       -1807.175
C08  35863162.649          34.000        8774.777       -1254.633
C09  36844758.105          22.000       86225.447       -1627.754
R19  21212122.956          17.000           0.000        -950.737
C13  36148367.206          42.000        3364.444       -1121.149
C16  36198509.293          26.000      102291.391       -1938.363
C27  26589517.360          17.000           0.000       -4605.857
C23  25080287.478          25.000      185412.539       -3512.034
C46  24530504.685          28.000      -57748.550        1176.120
C38  35934825.938          34.000           0.000       -1605.574
E21  26743238.941          12.000         416.579         -80.672
E04  26244866.957          15.000       49957.060        -963.299
E12  24438161.713          32.000        1129.259       -1128.207
E19  24863133.111          35.000      130354.722       -2557.100
> 2023 07 25 09 20 19.000001   0 38
G05  24229986.130          10.000      128435.384       -4148.123
C39  36026690.441          18.000           0.000       -2121.711
G10  24147455.964          26.000      -40159.176         747.847
C20  23147803.409          28.000           0.000       -1019.098
G12  24320322.291           9.000       -1039.045         348.824
G18  20541188.031          24.000       88375.920       -2222.452
G23  21526938.910          35.000         -83.065          41.982
G24  20291498.988          41.000       23559.665       -2948.166
J03  35990026.423          34.000        2145.525       -2144.557
G29  25176665.957           9.000      144696.550       -4147.714
G32  24604750.985          17.000       10502.494        -204.997
C32  23674177.208          27.000       99529.978       -2489.617
R14  21479271.913          40.000           0.000        1441.411
R02  23660010.219           9.000           0.000       -3287.098
C37  22840660.340          34.000           0.000        -907.031
R18  20560250.638          19.000           0.000       -4181.635
R13  21145854.433          12.000           0.000       -1888.012
G25  24854086.574          11.000      -32549.061         677.759
C30  24203444.304          17.000           0.000       -4269.261
R17  22853511.546           9.000           0.000       -6148.147
C29  24341692.697          26.000           0.000       -2243.386
R03  21393556.152          27.000           0.000       -2336.150
R04  22054218.685          32.000           0.000       -1070.583
E33  24208739.239          25.000      153143.134       -3935.232
C06  35968054.934          27.000       97280.609       -1805.744
C08  35863405.781          34.000       10029.589       -1255.002
C09  36845068.390          21.000       87853.801       -1628.769
R19  21212313.924          17.000           0.000        -977.139
C13  36148582.457          41.000        4485.422       -1120.087
C16  36198883.434          26.000      104228.748       -1937.578
C27  26590402.647          17.000           0.000       -4605.923
C23  25080966.208          26.000      188924.192       -3511.051
C46  24530279.841          27.000      -58924.091        1175.220
C38  35935132.625          33.000           0.000       -1605.598
E21  26743262.625          13.000         497.218         -81.005
E04  26245049.530          16.000       50920.498        -963.846
E12  24438376.964          31.000        2258.754       -1128.328
E19  24863620.274          35.000           1.074       -2556.683
> 2023 07 25 09 20 20.000001   0 37
G05  24230771.586          11.000      132581.720       -4145.337
C39  36027099.058          17.000           0.000       -2122.152
G10  24147315.661          28.000      -40907.281         748.286
C20  23147997.375          28.000           0.000       -1018.848
G18  20541612.238          23.000       90598.748       -2224.030
G23  21526929.617          36.000        -124.955          41.490
G24  20292062.298          42.000       26507.935       -2948.882
J03  35990435.340          34.000        4290.331       -2147.247
G29  25177448.115           9.000      148840.259       -4139.119
G32  24604787.560          17.000       10706.575        -201.712
C32  23674657.176          24.000      102019.767       -2490.078
R14  21479001.500          37.000           0.000        1441.376
R02  23660624.494           9.000           0.000       -3277.106
C37  22840836.318          33.000           0.000        -909.672
R18  20561048.385          20.000           0.000       -4178.248
R13  21146205.789          11.000           0.000       -1887.630
G25  24853957.064           9.000      -33227.745         680.003
C30  24204261.239          16.000           0.000       -4267.887
R17  22854654.655           9.000           0.000       -6148.584
C29  24342120.501          25.000           0.000       -2244.588
R03  21393985.755          26.000           0.000       -2335.675
R04  22054415.649          33.000           0.000       -1069.830
E33  24209489.020          21.000      157076.463       -3931.501
C06  35968402.393          22.000       99086.303       -1805.266
C08  35863646.514          34.000       11284.090       -1253.605
C09  36845379.874          19.000       89483.976       -1630.221
R19  21212495.598          17.000           0.000        -970.783
C13  36148797.408          41.000        5605.985       -1120.367
C16  36199254.877          22.000      106165.748       -1936.249
C27  26591288.234          17.000           0.000       -4603.600
C23  25081645.238          25.000      192431.579       -3506.950
C46  24530054.097          26.000      -60099.656        1175.365
C38  35935440.512          32.000           0.000       -1605.241
E21  26743286.308          13.000         577.847         -79.994
E04  26245233.003          16.000       51884.007        -960.850
E12  24438591.015          30.000        3388.317       -1130.420
E19  24864106.237          34.000        2557.548       -2556.079
> 2023 07 25 09 20 21.000001   0 36
G05  24231554.644          11.000      136725.977       -4143.651
C39  36027507.076          16.000           0.000       -2119.897
G10  24147173.560          28.000      -41656.244         749.691
C20  23148189.842          27.000           0.000       -1017.580
G18  20542036.744          22.000       92822.004       -2222.889
G23  21526922.122          36.000        -167.371          45.229
G24  20292625.608          42.000       29456.220       -2945.377
J03  35990842.158          33.000        6434.521       -2139.668
G32  24604826.233          16.000       10907.645        -198.036
C32  23675135.045          26.000      104509.339       -2489.231
R14  21478746.077          36.000           0.000        1441.408
R02  23661228.575           9.000           0.000       -3275.331
C37  22841006.300          34.000           0.000        -904.085
R18  20561849.731          18.000           0.000       -4177.056
R13  21146559.844          12.000           0.000       -1887.585
G25  24853829.352           9.000      -33908.461         683.534
C30  24205079.972          17.000           0.000       -4273.593
R17  22855802.560           9.000           0.000       -6148.985
C29  24342545.606          24.000           0.000       -2244.887
R03  21394423.152          26.000           0.000       -2335.391
R04  22054612.612          32.000           0.000       -1069.502
E33  24210236.402          22.000      161008.200       -3931.989
C06  35968751.651          24.000      100891.711       -1806.118
C08  35863891.145          34.000       12538.118       -1250.205
C09  36845691.958          15.000       91112.502       -1627.826
R19  21212678.771          17.000           0.000        -974.615
C13  36149011.160          41.000        6725.955       -1116.348
C16  36199625.421          24.000      108101.425       -1934.708
C27  26592176.219          16.000           0.000       -4602.175
C23  25082325.467          23.000      195939.943       -3509.805
C46  24529828.053          26.000      -61274.808        1175.170
C38  35935745.101          33.000           0.000       -1600.743
E21  26743303.996          13.000         660.202         -83.525
E04  26245414.677          15.000       52845.232        -962.408
E12  24438804.468          29.000        4517.687       -1125.642
E19  24864593.100          35.000        5113.294       -2550.565
> 2023 07 25 09 20 22.000001   0 36
G05  24232341.599          11.000      140869.829       -4143.352
C39  36027915.693          17.000           0.000       -2118.160
G10  24147033.557          29.000      -42407.812         752.348
C20  23148380.210          26.000           0.000       -1015.079
G18  20542467.246          19.000       95044.793       -2223.216
G23  21526911.629          38.000        -212.283          46.210
G24  20293188.618          42.000       32402.469       -2946.653
J03  35991248.677          35.000        8576.136       -2142.332
G32  24604867.904          15.000       11103.575        -192.007
C32  23675613.814          27.000      106996.775       -2486.434
R14  21478474.165          32.000           0.000        1443.457
R02  23661835.955           9.000           0.000       -3270.644
C37  22841181.079          34.000           0.000        -908.286
R18  20562647.778          17.000           0.000       -4176.342
R13  21146911.801          12.000           0.000       -1889.019
G25  24853701.640           9.000      -34593.730         687.252
C30  24205898.705          16.000           0.000       -4262.734
R17  22856948.367           9.000           0.000       -6149.077
C29  24342968.913          22.000           0.000       -2242.404
R03  21394863.547          29.000           0.000       -2332.593
R04  22054811.675          29.000           0.000       -1066.988
E33  24210985.583          24.000      164939.291       -3930.880
C06  35969098.211          26.000      102696.002       -1803.271
C08  35864124.383          31.000       13789.596       -1251.167
C09  36846003.143          15.000       92740.095       -1626.519
R19  21212859.246          15.000           0.000        -959.422
C13  36149228.510          40.000        7843.440       -1117.978
C16  36199994.765          27.000      110034.036       -1930.584
C27  26593061.806          17.000           0.000       -4599.962
C23  25083001.799          22.000      199448.288       -3507.669
C46  24529602.609          28.000      -62451.167        1177.095
C38  35936051.189          32.000           0.000       -1602.147
E21  26743325.581          11.000         741.597         -78.036
E04  26245594.553          15.000       53807.444        -962.086
E12  24439018.819          27.000        5645.169       -1127.762
E19  24865079.364          33.000        7666.476       -2553.169
> 2023 07 25 09 20 23.000001   0 37
G05  24233123.158          12.000      145009.593       -4137.710
C39  36028324.310          17.000           0.000       -2115.726
G10  24146893.553          30.000      -43160.672         753.428
C20  23148571.777          26.000           0.000       -1014.622
G18  20542889.354          20.000       97266.383       -2220.441
G23  21526906.533          37.000        -257.564          45.626
G24  20293748.330          41.000       35348.913       -2947.591
J03  35991651.598          33.000       10717.323       -2141.516
G32  24604902.980          11.000       11293.542        -189.559
C32  23676090.184          27.000      109482.236       -2485.024
R14  21478203.452          29.000           0.000        1445.318
R02  23662445.433           9.000           0.000       -3270.807
C37  22841350.162          32.000           0.000        -905.995
R18  20563438.631          17.000           0.000       -4176.803
R13  21147264.656          11.000           0.000       -1889.128
C30  24206712.042          16.000           0.000       -4244.761
R17  22858093.874          12.000           0.000       -6149.931
C29  24343393.120          13.000           0.000       -2240.832
R03  21395284.456          24.000           0.000       -2330.851
R04  22055026.326          22.000           0.000       -1063.962
E33  24211734.165          22.000      168868.283       -3928.318
C06  35969444.172          26.000      104497.933       -1801.322
C08  35864365.117          31.000       15040.663       -1251.483
C09  36846314.627          15.000       94365.842       -1626.606
R19  21213038.522          13.000           0.000        -954.733
C13  36149443.761          37.000        8960.457       -1116.775
C16  36200365.608          23.000      111963.915       -1929.546
C27  26593947.094          18.000           0.000       -4597.468
C23  25083677.232          24.000      202955.863       -3507.285
C46  24529376.866          30.000      -63629.816        1179.816
C38  35936362.674          32.000           0.000       -1605.260
E21  26743346.267           9.000         818.682         -75.098
E04  26245773.529          15.000       54767.915        -960.132
E12  24439231.972          19.000        6773.579       -1132.604
G25  24853616.200          17.000       -5293.247         666.756
E19  24865564.428          32.000       10219.101       -2553.872
G15  22345947.622          24.000      157457.104       -3932.871
> 2023 07 25 09 20 24.000001   0 37
G05  24233903.817          13.000      149141.310       -4126.450
C39  36028731.728          17.000           0.000       -2117.337
G10  24146753.550          29.000      -43914.044         752.551
C20  23148766.343          28.000           0.000       -1014.488
G12  24320103.743          17.000           0.000         369.948
G18  20543312.661          21.000       99487.465       -2221.746
G23  21526899.338          37.000        -301.022          41.979
G24  20294307.144          41.000       38297.477       -2950.554
J03  35992061.115          34.000       12860.246       -2143.782
G32  24604940.754          10.000       11483.740        -191.169
C32  23676569.552          27.000      111966.749       -2485.320
R14  21477929.742          33.000           0.000        1443.294
R02  23663052.812          12.000           0.000       -3267.197
C37  22841516.247          31.000           0.000        -909.896
R18  20564225.886          18.000           0.000       -4178.471
R13  21147627.705          11.000           0.000       -1888.223
G25  24853511.872          20.000           0.000         666.476
C30  24207525.679          16.000           0.000       -4251.336
R17  22859239.681          11.000           0.000       -6149.072
C29  24343823.022          17.000           0.000       -2238.929
R03  21395716.457          25.000           0.000       -2331.027
R04  22055237.080          18.000           0.000       -1068.592
E33  24212479.149          23.000      172800.089       -3932.858
C06  35969793.130          28.000      106298.595       -1800.466
C08  35864602.253          34.000       16293.230       -1254.567
C09  36846626.411          14.000       95990.815       -1624.807
R19  21213216.599          14.000           0.000        -941.748
C13  36149659.611          38.000       10079.061       -1120.829
C16  36200735.852          26.000      113893.997       -1930.531
C27  26594829.383          17.000           0.000       -4597.368
C23  25084352.964          24.000      206463.115       -3507.415
C46  24529150.522          30.000      -64810.250        1180.697
C38  35936672.959          32.000           0.000       -1605.577
E21  26743366.952           9.000         893.100         -76.923
E04  26245952.205          14.000       55728.485        -961.575
E12  24439449.921          24.000        7904.910       -1129.111
E19  24866050.691          32.000       12773.316       -2556.414
> 2023 07 25 09 20 25.000001   0 37
G05  24234686.875          12.000      153269.200       -4126.307
C39  36029139.146          16.000           0.000       -2119.712
G10  24146611.449          30.000      -44665.413         750.797
C20  23148963.606          29.000           0.000       -1017.990
G12  24319943.354          14.000          -0.098         368.556
G18  20543735.668          24.000      101710.205       -2224.664
G23  21526893.042          37.000        -342.424          40.472
G24  20294869.554          41.000       41248.978       -2952.570
J03  35992472.730          35.000       15005.301       -2146.807
G32  24604977.928          12.000       11676.916        -194.454
C32  23677051.918          23.000      114453.029       -2486.826
R14  21477656.931          36.000           0.000        1440.129
R02  23663662.590          12.000           0.000       -3274.591
C37  22841688.928          33.000           0.000        -912.044
R18  20565008.944          18.000           0.000       -4181.242
R13  21147987.756          12.000           0.000       -1895.587
G25  24853373.068          17.000          -0.191         662.219
C30  24208340.215          17.000           0.000       -4253.736
R17  22860382.490           9.000           0.000       -6150.348
C29  24344254.423          24.000           0.000       -2244.218
R03  21396154.753          32.000           0.000       -2333.492
R04  22055427.748          19.000           0.000       -1069.575
E33  24213226.832          23.000      176732.927       -3933.785
C06  35970141.489          28.000      108101.527       -1804.289
C08  35864842.086          34.000       17548.355       -1252.621
C09  36846938.495          14.000       97616.403       -1625.740
R19  21213395.575          15.000           0.000        -935.281
C13  36149872.764          42.000       11199.973       -1121.948
C16  36201106.396          20.000      115825.150       -1931.244
C27  26595713.770          17.000           0.000       -4601.214
C23  25085026.597          27.000      209972.940       -3511.198
C46  24528924.179          28.000      -65988.880        1177.192
C38  35936981.445          31.000           0.000       -1605.435
E21  26743385.839           9.000         971.757         -80.928
E04  26246133.880          15.000       56691.434        -964.681
E12  24439667.570          30.000        9035.352       -1130.752
E19  24866537.254          34.000       15329.815       -2555.188
> 2023 07 25 09 20 26.000001   0 37
G05  24235469.933          11.000      157391.205       -4119.927
C39  36029548.662          17.000           0.000       -2121.832
G10  24146471.446          29.000      -45415.375         748.577
C20  23149161.769          27.000           0.000       -1019.531
G12  24319877.399           9.000        -366.085         364.210
G18  20544158.675          23.000      103936.349       -2226.106
G23  21526886.746          36.000        -382.444          38.032
G24  20295433.464          41.000       44202.116       -2954.634
J03  35992881.647          33.000       17151.658       -2148.049
G32  24605012.404          10.000       11873.618        -200.275
C32  23677538.781          22.000      116939.263       -2486.964
R14  21477385.618          37.000           0.000        1437.620
R02  23664273.567          13.000           0.000       -3281.731
C37  22841860.409          32.000           0.000        -914.185
R18  20565792.601          19.000           0.000       -4184.126
R13  21148330.419           9.000           0.000       -1900.001
G25  24853239.061           9.000        -662.284         660.799
C30  24209155.051          16.000           0.000       -4261.324
R17  22861524.999           9.000           0.000       -6153.450
C29  24344687.024          22.000           0.000       -2246.773
R03  21396595.748          26.000           0.000       -2337.130
R04  22055618.716          23.000           0.000       -1070.343
E33  24213975.414          21.000      180666.969       -3935.814
C06  35970492.246          24.000      109906.336       -1806.700
C08  35865084.918          31.000       18804.500       -1257.119
C09  36847249.680          14.000       99240.790       -1623.251
R19  21213575.151          15.000           0.000        -908.505
C13  36150092.212          37.000       12322.020       -1122.321
C16  36201470.943          23.000      117756.936       -1932.009
C27  26596598.158          17.000           0.000       -4602.222
C23  25085703.229          24.000      213485.328       -3513.394
C46  24528696.637          27.000      -67165.924        1176.864
C38  35937290.531          31.000           0.000       -1608.608
E21  26743404.127           9.000        1053.899         -83.124
E04  26246316.153          16.000       57656.952        -966.001
E12  24439883.421          25.000       10166.075       -1134.385
E19  24867024.117          32.000       17887.394       -2559.537
> 2023 07 25 09 20 27.000001   0 37
G05  24236251.792           9.000      161509.215       -4114.381
C39  36029957.280          17.000           0.000       -2123.420
G10  24146329.944          27.000      -46163.325         746.135
C20  23149360.231          29.000           0.000       -1019.991
G12  24319811.445           9.000        -729.840         360.911
G18  20544580.483          22.000      106162.410       -2226.780
G23  21526878.352          36.000        -421.691          38.991
G24  20295993.176          39.000       47156.541       -2955.440
J03  35993285.467          33.000       19298.740       -2147.754
G32  24605044.182          13.000       12074.283        -201.548
C32  23678023.845          27.000      119427.486       -2488.841
R14  21477114.906          35.000           0.000        1436.866
R02  23664886.643          14.000           0.000       -3304.507
C37  22842040.285          32.000           0.000        -911.845
R18  20566586.451          20.000           0.000       -4187.690
R13  21148692.268           9.000           0.000       -1901.519
G25  24853113.148          16.000       -1322.668         661.276
C30  24209971.685          16.000           0.000       -4268.039
R17  22862665.709           9.000           0.000       -6154.745
C29  24345115.727          19.000           0.000       -2249.078
R03  21397037.342          29.000           0.000       -2337.903
R04  22055818.677          27.000           0.000       -1071.194
E33  24214725.494          22.000      184603.786       -3938.281
C06  35970839.406          23.000      111713.678       -1808.680
C08  35865328.350          32.000       20061.151       -1255.970
C09  36847561.464          13.000      100861.543       -1619.267
R19  21213746.932          15.000           0.000        -881.221
C13  36150306.564          38.000       13444.700       -1123.702
C16  36201839.988          21.000      119692.371       -1937.191
C27  26597485.544          16.000           0.000       -4603.210
C23  25086379.861          23.000      217000.215       -3515.806
C46  24528469.094          27.000      -68340.577        1173.121
C38  35937593.622          30.000           0.000       -1606.437
E21  26743424.812          13.000        1138.830         -86.497
E04  26246499.027          16.000       58623.225        -966.805
E12  24440100.770          24.000       11300.946       -1134.905
E19  24867510.381          33.000       20445.563       -2558.750
> 2023 07 25 09 20 28.000001   0 37
G05  24237031.552           9.000      165623.894       -4113.545
C39  36030366.496          17.000           0.000       -2124.438
G10  24146189.341          26.000      -46908.965         745.401
C20  23149562.891          30.000           0.000       -1019.907
G12  24319743.992          11.000       -1091.227         362.539
G18  20545004.389          25.000      108390.033       -2229.418
G23  21526868.159          37.000        -461.047          44.022
G24  20296549.891          41.000       50111.681       -2954.068
J03  35993691.686          36.000       21445.030       -2147.571
G32  24605078.059          17.000       12277.935        -204.782
C32  23678503.813          28.000      121917.200       -2490.621
R14  21476844.493          37.000           0.000        1435.996
R02  23665496.721          13.000           0.000       -3283.815
C37  22842216.263          32.000           0.000        -911.153
R18  20567374.906          20.000           0.000       -4186.566
R13  21149043.625           9.000           0.000       -1901.658
G25  24852986.635          17.000       -1984.910         662.421
C30  24210788.620          17.000           0.000       -4268.255
R17  22863805.520           9.000           0.000       -6156.056
C29  24345551.625          24.000           0.000       -2250.445
R03  21397480.436          32.000           0.000       -2336.520
R04  22056018.939          28.000           0.000       -1071.751
E33  24215475.575          22.000      188541.740       -3937.913
C06  35971187.165          25.000      113521.755       -1808.740
C08  35865572.681          35.000       21317.796       -1255.754
C09  36847872.349          13.000      102483.726       -1622.596
R19  21213914.815          15.000           0.000        -873.627
C13  36150521.815          38.000       14567.099       -1122.600
C16  36202209.632          20.000      121630.122       -1939.302
C27  26598373.229          15.000           0.000       -4603.225
C23  25087053.194          24.000      220515.619       -3515.298
C46  24528245.149          24.000      -69513.296        1171.849
C38  35937901.808          31.000           0.000       -1606.378
E21  26743445.798          14.000        1225.217         -86.282
E04  26246685.498          17.000       59591.118        -968.530
E12  24440319.319          29.000       12436.208       -1134.698
E19  24867996.644          34.000       23003.274       -2557.142
> 2023 07 25 09 20 29.000001   0 37
G05  24237809.214           9.000      169736.515       -4111.274
C39  36030775.713          17.000           0.000       -2123.527
G10  24146046.040          21.000      -47654.490         744.960
C20  23149766.750          30.000           0.000       -1020.309
G12  24319679.836          11.000       -1454.294         365.513
G18  20545431.594          26.000      110619.571       -2230.238
G23  21526866.061          32.000        -501.894          40.738
G24  20297110.503          37.000       53066.386       -2955.041
J03  35994098.504          40.000       23592.044       -2147.682
G32  24605117.931          19.000       12483.031        -205.369
C32  23678979.584          29.000      124407.376       -2490.286
R14  21476570.782          36.000           0.000        1436.692
R02  23666110.396          15.000           0.000       -3285.565
C37  22842392.541          27.000           0.000        -912.190
R18  20568153.467          20.000           0.000       -4187.707
R13  21149401.577           9.000           0.000       -1901.547
G25  24852862.521          16.000       -2647.008         658.124
C30  24211603.156          17.000           0.000       -4257.952
R17  22864952.526          10.000           0.000       -6157.886
C29  24345986.324          22.000           0.000       -2250.399
R03  21397925.627          28.000           0.000       -2336.225
R04  22056227.594          22.000           0.000       -1070.589
E33  24216229.553          24.000      192479.021       -3936.837
C06  35971535.224          25.000      115330.249       -1808.044
C08  35865815.812          39.000       22573.930       -1256.729
C09  36848185.932          15.000      104110.931       -1628.619
R19  21214081.800          13.000           0.000        -878.764
C13  36150740.063          37.000       15689.183       -1124.073
C16  36202583.473          20.000      123569.416       -1939.624
C27  26599260.615          15.000           0.000       -4602.937
C23  25087725.329          25.000      224031.835       -3518.138
C46  24528016.707          24.000      -70685.200        1170.358
C38  35938206.997          30.000           0.000       -1607.337
E21  26743466.483          15.000        1310.858         -85.813
E04  26246870.470          18.000       60559.731        -968.667
E12  24440537.568          25.000       13570.330       -1133.424
E19  24868482.908          29.000       25560.972       -2557.218
> 2023 07 25 09 20 30.000001   0 36
C39  36031184.630          17.000           0.000       -2123.424
G10  24145903.939          19.000      -48398.478         743.725
C20  23149964.013          26.000           0.000       -1021.111
G12  24319609.385          11.000       -1819.557         364.862
G18  20545850.404          24.000      112851.048       -2231.842
G23  21526856.467          31.000        -542.253          39.718
G24  20297685.505          37.000       56023.556       -2960.490
J03  35994507.721          39.000       25738.883       -2147.565
G32  24605155.405          20.000       12688.247        -204.861
C32  23679456.853          26.000      126897.704       -2491.479
R14  21476300.070          36.000           0.000        1436.934
R02  23666722.872          15.000           0.000       -3274.184
C37  22842570.617          33.000           0.000        -913.504
R18  20568934.126          29.000           0.000       -4189.076
R13  21149757.431           9.000           0.000       -1912.151
G25  24852737.208          18.000       -3306.346         660.318
C30  24212420.090          17.000           0.000       -4262.295
R17  22866104.928          10.000           0.000       -6158.105
C29  24346427.019          21.000           0.000       -2250.582
R03  21398370.220          28.000           0.000       -2336.067
R04  22056431.753          22.000           0.000       -1069.572
E33  24216976.936          23.000      196417.108       -3938.295
C06  35971882.084          28.000      117137.940       -1807.904
C08  35866058.344          38.000       23830.438       -1256.176
C09  36848498.915          16.000      105739.062       -1628.729
R19  21214248.484           9.000           0.000        -900.295
C13  36150952.616          35.000       16811.295       -1122.302
E04  26247055.142          13.000           0.000        -955.642
C16  36202963.010          22.000      125507.319       -1936.673
C27  26600148.301          17.000           0.000       -4602.842
C23  25088398.063          22.000      227549.248       -3516.869
C46  24527796.660          24.000      -71856.695        1171.476
C38  35938515.483          27.000           0.000       -1607.173
E21  26743486.270          14.000        1396.368         -82.390
E12  24440754.018          27.000       14704.034       -1133.989
E19  24868970.070          34.000       28118.680       -2558.264
> 2023 07 25 09 20 31.000001   0 36
C39  36031593.247          24.000           0.000       -2121.950
G10  24145765.135          18.000      -49144.271         747.342
C20  23150167.273          24.000           0.000       -1021.307
G12  24319540.432          12.000       -2183.726         362.235
G18  20546274.610          28.000      115082.498       -2230.608
G23  21526848.073          27.000        -581.636          39.740
G24  20298247.915          32.000       58981.791       -2957.231
J03  35994914.839          41.000       27886.695       -2149.230
G32  24605194.079          21.000       12893.166        -205.187
C32  23679933.823          26.000      129390.149       -2493.205
R14  21476022.162          36.000           0.000        1438.760
R02  23667330.551          16.000           0.000       -3274.732
C37  22842750.193          30.000           0.000        -914.692
R18  20569715.685          24.000           0.000       -4189.782
R13  21150113.284           9.000           0.000       -1935.208
G25  24852612.195          19.000       -3966.753         661.496
C30  24213237.025          18.000           0.000       -4266.299
R17  22867254.932          12.000           0.000       -6156.983
C29  24346862.018          18.000           0.000       -2247.121
R03  21398814.212          29.000           0.000       -2335.739
R04  22056637.111          22.000           0.000       -1070.357
E33  24217724.618          22.000      200354.654       -3938.492
C06  35972227.745          28.000      118944.673       -1805.561
C08  35866297.879          36.000       25086.026       -1254.552
C09  36848810.699          17.000      107367.947       -1628.778
R19  21214427.461          10.000           0.000        -928.026
C13  36151157.674          35.000       17933.230       -1117.814
C16  36203335.652          24.000      127442.700       -1935.418
C27  26601029.990          18.000           0.000       -4601.764
C23  25089072.896          23.000      231066.016       -3517.099
C46  24527573.914          24.000      -73028.757        1172.036
C38  35938825.169          27.000           0.000       -1607.263
E21  26743503.957          14.000        1479.666         -85.542
E04  26247245.210          18.000       62493.857        -965.928
E12  24440971.967          30.000       15837.731       -1133.642
E19  24869456.034          31.000       30676.637       -2557.414
> 2023 07 25 09 20 32.000001   0 36
C39  36032001.864          16.000           0.000       -2119.428
G10  24145629.928          17.000      -49889.631         744.490
C20  23150363.937          24.000           0.000       -1017.606
G12  24319470.581          14.000       -2543.817         357.585
G18  20546697.317          31.000      117312.769       -2229.788
G23  21526838.480          36.000        -622.205          41.276
G24  20298804.630          35.000       61936.315       -2953.283
J03  35995322.857          32.000       30033.412       -2144.725
G32  24605236.349          21.000       13098.499        -205.191
C32  23680408.095          25.000      131881.239       -2488.659
R14  21475746.353          39.000           0.000        1440.922
R02  23667939.729          15.000           0.000       -3276.622
C37  22842943.559          31.000           0.000        -913.378
R18  20570498.443          27.000           0.000       -4188.135
R13  21150472.735           9.000           0.000       -1963.573
G25  24852489.280          19.000       -4629.365         663.770
C30  24214054.559          24.000           0.000       -4258.291
R17  22868400.739          12.000           0.000       -6157.080
C29  24347292.820          16.000           0.000       -2246.373
R03  21399255.807          25.000           0.000       -2332.495
R04  22056846.966          23.000           0.000       -1065.658
E33  24218472.900          22.000      204291.644       -3936.088
C06  35972572.806          22.000      120748.855       -1803.133
C08  35866538.612          29.000       26339.912       -1252.125
C09  36849122.483          19.000      108997.614       -1631.214
R19  21214608.235           9.000           0.000        -950.331
C13  36151374.124          31.000       19052.321       -1119.035
C16  36203710.093          26.000      129376.838       -1933.385
C27  26601919.474          19.000           0.000       -4599.502
C23  25089748.329          21.000      234583.066       -3515.826
C46  24527346.072          18.000      -74201.143        1173.501
C38  35939134.555          27.000           0.000       -1604.866
E21  26743522.245          14.000        1564.720         -86.204
E04  26247428.084          18.000       63458.244        -960.968
E12  24441187.818          32.000       16971.032       -1132.968
E19  24869942.297          33.000       33232.114       -2553.794
> 2023 07 25 09 20 33.000001   0 36
C39  36032409.882          17.000           0.000       -2118.698
G10  24145481.531          17.000      -50637.812         750.486
C20  23150558.202          29.000           0.000       -1016.481
G12  24319404.027          13.000       -2896.070         348.454
G18  20547118.826          35.000      119542.216       -2229.408
G23  21526827.987          38.000        -664.305          42.930
G24  20299362.544          39.000       64890.582       -2955.133
J03  35995730.274          29.000       32177.395       -2143.648
C46  24527184.783          16.000           0.000        1169.492
G32  24605269.626          20.000       13301.865        -201.620
C32  23680877.570          25.000      134369.381       -2486.284
R14  21475483.135          41.000           0.000        1439.233
R02  23668551.606          15.000           0.000       -3285.788
C37  22843134.527          33.000           0.000        -912.222
R18  20571267.411          26.000           0.000       -4186.577
R13  21150847.176           9.000           0.000       -1987.523
G25  24852364.866          19.000       -5293.122         663.679
C30  24214870.294          22.000           0.000       -4252.348
R17  22869549.244          11.000           0.000       -6158.843
C29  24347723.921          16.000           0.000       -2247.660
R03  21399706.694          22.000           0.000       -2332.376
R04  22057058.619          19.000           0.000       -1065.301
E33  24219221.482          19.000      208226.942       -3931.965
C06  35972918.467          24.000      122552.176       -1803.933
C08  35866779.945          35.000       27592.817       -1253.114
C09  36849434.267          19.000      110627.960       -1629.325
R19  21214797.704           9.000           0.000        -968.408
C13  36151589.675          31.000       20171.119       -1119.032
C16  36204078.838          17.000      131308.694       -1930.996
C27  26602806.260          19.000           0.000       -4598.260
C23  25090421.962          22.000      238098.913       -3516.383
C38  35939443.341          21.000           0.000       -1602.502
E21  26743542.331          12.000        1653.540         -86.880
E04  26247610.957          18.000       64418.278        -959.252
E12  24441403.968          28.000       18105.110       -1133.899
E19  24870429.160          35.000       35786.189       -2555.826
> 2023 07 25 09 20 34.000001   0 36
G05  24241833.928          16.000           0.000       -4129.943
C39  36032817.000          19.000           0.000       -2120.655
G10  24145332.834          17.000      -51387.070         747.901
C20  23150756.365          34.000           0.000       -1017.470
G12  24319341.670          14.000       -3242.463         344.121
G18  20547534.338          27.000      121771.225       -2229.628
G23  21526816.595          38.000           0.583          38.901
G24  20299921.956          39.000          -0.185       -2959.685
J03  35996137.692          33.000       34320.821       -2143.950
C46  24526998.612          22.000           0.000        1171.587
G32  24605302.903          19.000       13502.508        -200.759
C32  23681357.238          26.000      136855.376       -2486.179
R14  21475213.022          41.000           0.000        1435.103
R02  23669159.585          13.000           0.000       -3294.569
C37  22843301.811          31.000           0.000        -914.306
R18  20572037.278          21.000           0.000       -4189.273
G25  24852237.154          20.000       -5958.163         665.009
C30  24215683.931          20.000           0.000       -4252.846
R17  22870690.553          10.000           0.000       -6160.786
C29  24348152.924          18.000           0.000       -2248.786
R03  21400142.293          27.000           0.000       -2333.870
R04  22057262.478          21.000           0.000       -1065.284
E33  24219961.370          21.000      212160.024       -3936.227
C06  35973268.025          18.000      124358.532       -1808.490
C08  35867024.875          38.000       28848.864       -1257.655
C09  36849746.651          19.000      112258.580       -1630.954
R19  21214988.972          12.000           0.000        -974.404
C13  36151803.727          34.000       21291.128       -1120.923
C16  36204448.182          20.000      133238.617       -1928.939
C27  26603690.049          19.000           0.000       -4598.862
C23  25091095.596          22.000      241614.437       -3515.876
C38  35939751.228          25.000           0.000       -1605.737
E21  26743564.815           9.000        1740.997         -87.398
E04  26247791.432          16.000       65378.852        -959.808
E12  24441618.020          30.000       19239.866       -1136.262
E19  24870916.023          37.000       38343.081       -2557.678
> 2023 07 25 09 20 35.000001   0 37
G05  24242607.992          14.000           0.097       -4134.138
C39  36033225.017          20.000           0.000       -2122.900
G10  24145194.929          18.000      -52135.783         748.526
C20  23150951.830          35.000           0.000       -1018.179
G12  24319277.215          13.000       -3587.501         345.598
G18  20547955.546          24.000      124003.873       -2234.563
G23  21526812.698          39.000         -37.964          38.189
G24  20300477.172          32.000        2958.965       -2959.310
J03  35996547.509          35.000       36466.033       -2147.317
C46  24526762.676          17.000           0.000        1178.096
G32  24605340.377          18.000       13699.407        -195.831
C32  23681842.602          20.000      139342.357       -2487.663
R14  21474938.712          39.000           0.000        1434.450
R02  23669772.061          12.000           0.000       -3303.941
C37  22843469.095          31.000           0.000        -917.126
R18  20572815.539          20.000           0.000       -4191.862
G25  24852111.841          23.000       -6624.069         666.430
R17  22871839.658           9.000           0.000       -6161.060
C29  24348583.127          17.000           0.000       -2250.723
R03  21400577.591          28.000           0.000       -2335.577
R04  22057455.544          22.000           0.000       -1067.635
E33  24220705.754          26.000      216099.053       -3941.402
C06  35973616.384          17.000      126169.110       -1814.320
C08  35867264.410          37.000       30106.126       -1258.235
C09  36850059.934          24.000      113891.623       -1633.373
R19  21215179.640          15.000           0.000        -955.153
C13  36152019.278          32.000       22412.991       -1123.731
C16  36204822.623          20.000      135166.716       -1930.206
C27  26604576.535          18.000           0.000       -4599.639
C23  25091774.026          22.000      245131.055       -3517.295
C38  35940060.914          31.000           0.000       -1608.518
C30  24216516.455          19.000      297841.077       -4255.330
E21  26743585.501           9.000        1828.705         -88.968
E04  26247975.505          15.000       66340.748        -964.952
E12  24441833.571          31.000       20377.476       -1138.618
E19  24871402.586          37.000       40901.562       -2558.382
C02  37262124.368           9.000        1691.702       -1685.289
> 2023 07 25 09 20 36.000001   0 36
G05  24243398.844           9.000        4131.616       -4129.598
C39  36033633.035          20.000           0.000       -2123.594
G10  24145057.325          23.000      -52884.285         748.272
C20  23151146.095          34.000           0.000       -1021.620
G12  24319212.759          14.000       -3930.122         339.408
G18  20548376.455          28.000      126239.444       -2236.890
G23  21526807.301          36.000         -75.764          35.545
G24  20301044.080          33.000        5919.706       -2961.421
J03  35996963.621          37.000       38613.792       -2148.565
C46  24526530.936          18.000           0.000        1172.873
G32  24605379.350          17.000       13894.849        -195.765
C32  23682328.865          24.000      141830.122       -2489.116
R14  21474676.094          41.000           0.000        1433.371
R02  23670385.736          10.000           0.000       -3308.571
C37  22843639.677          33.000           0.000        -918.526
R18  20573595.000          25.000           0.000       -4193.164
G25  24851985.628          23.000       -7290.508         665.970
R17  22872985.465           9.000           0.000       -6162.521
C29  24349019.325          16.000           0.000       -2253.532
R03  21401017.087          24.000           0.000       -2337.331
R04  22057639.317          18.000           0.000       -1069.785
E33  24221454.336          22.000      220038.570       -3939.453
C06  35973966.541          16.000      127984.390       -1815.474
C08  35867505.143          37.000       31364.326       -1258.837
C09  36850376.515          15.000      115526.143       -1633.888
R19  21215365.811          16.000           0.000        -940.801
C13  36152239.026          34.000           0.055       -1125.923
C16  36205198.263          24.000      137098.811       -1935.559
C27  26605462.122          15.000           0.000       -4599.371
C23  25092452.157          17.000      248647.956       -3518.704
C38  35940369.100          29.000           0.000       -1608.888
C30  24217336.687          19.000      302097.756       -4256.441
E21  26743607.985           9.000        1918.809         -88.917
E04  26248157.179          15.000       67306.259        -966.758
E12  24442052.119          25.000       21516.040       -1139.343
E19  24871889.749          36.000           0.681       -2558.345
> 2023 07 25 09 20 37.000001   0 37
G05  24244182.502          15.000        8262.895       -4132.297
C39  36034040.153          21.000           0.000       -2125.228
G10  24144918.821          22.000      -53632.586         748.182
C20  23151340.960          35.000           0.000       -1020.680
G12  24319145.906          13.000       -4271.055         340.387
G18  20548797.663          27.000      128476.706       -2237.817
G23  21526798.907          34.000        -113.179          35.282
G24  20301608.589          36.000        8881.231       -2962.042
J03  35997374.336          38.000           0.458       -2147.978
C46  24526301.895          19.000           0.000        1170.495
G29  25190608.405          14.000           0.000       -4110.804
G32  24605417.124          17.000       14092.174        -197.700
C32  23682812.130          25.000      144321.432       -2492.143
R14  21474415.874          40.000           0.000        1433.976
R02  23670998.812           9.000           0.000       -3299.513
C37  22843815.955          32.000           0.000        -919.759
R18  20574363.667          23.000           0.000       -4194.361
G25  24851860.315          23.000       -7956.184         666.563
C30  24218137.432          13.000           0.000       -4274.113
R17  22874128.274           9.000           0.000       -6163.031
C29  24349455.223          18.000           0.000       -2253.745
R03  21401457.482          24.000           0.000       -2337.824
R04  22057837.780          17.000           0.000       -1065.489
E33  24222205.616          23.000      223979.302       -3941.869
C06  35974315.500          16.000      129799.246       -1814.362
C08  35867747.675          39.000       32622.762       -1259.626
C09  36850690.098          16.000      117158.605       -1631.449
R19  21215547.185          16.000           0.000        -945.043
C13  36152456.675          33.000        1124.615       -1123.989
C16  36205570.305          22.000      139035.561       -1938.462
C27  26606345.610          14.000           0.000       -4600.187
C23  25093129.988          18.000      252167.510       -3521.019
C38  35940676.687          27.000           0.000       -1610.060
E21  26743628.671           9.000        2003.522         -79.664
E04  26248340.952          16.000       68274.239        -969.099
E12  24442270.069          26.000       22654.920       -1138.789
E19  24872376.612          37.000        2559.735       -2559.482
> 2023 07 25 09 20 38.000001   0 38
G05  24244968.258          15.000       12395.844       -4132.779
C39  36034447.871          21.000           0.000       -2125.096
G10  24144782.415          24.000      -54380.488         747.604
C20  23151537.024          34.000           0.000       -1021.174
G12  24319086.547          13.000       -4606.844         332.981
G18  20549221.270          29.000      130714.773       -2238.423
G23  21526793.511          34.000        -150.743          38.048
G24  20302169.201          36.000       11843.197       -2965.550
J03  35997785.652          37.000        2148.490       -2146.756
C46  24526074.652          19.000           0.000        1168.305
G29  25191391.163          16.000          -0.566       -4114.463
G32  24605448.303          15.000       14295.486        -205.519
C32  23683295.396          23.000      146814.593       -2493.536
R14  21474151.757          39.000           0.000        1433.595
R02  23671609.789           9.000           0.000       -3276.981
C37  22844001.527          33.000           0.000        -917.814
R18  20575136.832          26.000           0.000       -4195.548
R13  21153514.130          18.000           0.000       -2033.352
G25  24851733.803          22.000       -8623.028         667.380
C30  24218955.866          14.000           0.000       -4261.270
R17  22875274.080           9.000           0.000       -6164.838
C29  24349892.021          19.000           0.000       -2254.383
R03  21401896.378          23.000           0.000       -2337.866
R04  22058025.750          18.000           0.000       -1070.046
E33  24222956.596          23.000      227920.130       -3942.251
C06  35974661.160          17.000      131611.827       -1811.179
C08  35867989.607          37.000       33881.193       -1258.879
C09  36851005.480          17.000      118791.178       -1630.344
R19  21215732.457          18.000           0.000        -957.080
C13  36152672.825          33.000        2248.531       -1124.305
C16  36205941.748          22.000      140975.419       -1941.627
C27  26607234.495          13.000           0.000       -4603.500
C23  25093809.917          18.000      255689.100       -3522.295
C38  35940986.073          28.000           0.000       -1610.784
E21  26743644.560           9.000        2082.824         -79.381
E04  26248523.825          16.000       69244.219        -974.612
E12  24442488.917          26.000       23796.168       -1142.195
E19  24872863.775          36.000        5118.713       -2558.069
> 2023 07 25 09 20 39.000001   0 38
G05  24245743.821          13.000       16528.270       -4133.535
C39  36034855.888          21.000           0.000       -2125.110
G10  24144642.412          23.000      -55128.211         747.765
C20  23151735.187          35.000           0.000       -1019.530
G12  24319025.389          12.000       -4941.198         334.339
G18  20549647.875          30.000      132953.329       -2238.639
G23  21526785.417          36.000        -188.451          38.120
G24  20302732.211          31.000       14804.198       -2961.296
J03  35998188.872          37.000        4296.667       -2148.156
C46  24525844.111          24.000           0.000        1175.575
G29  25192175.420          16.000        4110.962       -4109.238
G32  24605482.479          15.000       14501.158        -207.248
C32  23683775.064          25.000      149306.580       -2491.701
R14  21473878.047          38.000           0.000        1433.605
R02  23672217.468          12.000           0.000       -3271.347
C37  22844179.304          32.000           0.000        -919.144
R18  20575919.890          23.000           0.000       -4195.385
R13  21153952.726          19.000           0.000       -1981.237
G25  24851607.290          24.000       -9290.495         667.351
C30  24219772.800          13.000           0.000       -4266.074
R17  22876425.883           9.000           0.000       -6165.696
C29  24350328.219          19.000           0.000       -2253.992
R03  21402333.776          24.000           0.000       -2336.924
R04  22058225.411          24.000           0.000       -1069.422
E33  24223707.876          22.000      231861.477       -3943.092
C06  35975007.720          17.000      133422.856       -1810.583
C08  35868232.140          36.000       35139.410       -1257.306
C09  36851320.861          16.000      120421.797       -1630.451
R19  21215921.326          18.000           0.000        -959.450
C13  36152892.573          33.000        3372.274       -1123.301
C16  36206315.589          22.000      142916.691       -1941.076
C27  26608120.382          13.000           0.000       -4602.871
C23  25094491.645          19.000      259211.699       -3522.378
C38  35941294.260          28.000           0.000       -1609.386
E21  26743663.147           9.000        2162.069         -76.658
E04  26248706.998          15.000       70217.186        -971.649
E12  24442707.466          25.000       24937.897       -1142.340
E19  24873350.338          37.000        7677.385       -2558.063
> 2023 07 25 09 20 40.000001   0 37
G05  24246522.682          13.000       20660.943       -4132.436
C39  36035263.306          20.000           0.000       -2124.620
G10  24144502.109          22.000      -55876.048         748.397
C20  23151928.254          35.000           0.000       -1019.635
G12  24318964.831          12.000       -5272.338         331.838
G18  20550073.880          28.000      135191.872       -2238.301
G23  21526779.421          36.000        -226.442          38.143
G24  20303294.921          33.000       17766.046       -2962.278
J03  35998598.988          36.000        6444.541       -2149.472
C46  24525615.070          23.000           0.000        1175.640
G29  25192955.180          15.000        8217.382       -4103.312
G32  24605521.452          15.000       14708.463        -206.825
C32  23684255.331          26.000      151796.651       -2489.801
R14  21473610.632          38.000           0.000        1433.619
R02  23672825.747          11.000           0.000       -3270.741
C37  22844357.081          33.000           0.000        -918.166
R18  20576701.449          27.000           0.000       -4195.807
R13  21154317.274          16.000           0.000       -1992.300
G25  24851481.078          22.000       -9959.058         668.808
C30  24220591.533          13.000           0.000       -4268.601
R17  22877576.486          10.000           0.000       -6165.776
C29  24350764.417          19.000           0.000       -2258.130
R03  21402769.974          26.000           0.000       -2336.295
R04  22058422.375          24.000           0.000       -1070.493
E33  24224459.156          23.000      235805.700       -3943.558
C06  35975354.880          18.000      135232.444       -1809.359
C08  35868473.173          35.000       36397.234       -1258.826
C09  36851636.843          16.000      122052.765       -1630.094
R19  21216106.298          18.000           0.000        -960.114
C13  36153108.724          34.000        4495.585       -1123.029
C16  36206691.829          23.000      144857.672       -1941.116
C27  26609007.767          13.000           0.000       -4602.578
C23  25095173.673          19.000      262734.985       -3524.563
C38  35941602.147          29.000           0.000       -1609.326
E04  26248894.369          15.000       71187.171        -968.670
E12  24442925.415          27.000       26078.775       -1140.208
E19  24873836.901          36.000       10235.729       -2558.215
> 2023 07 25 09 20 41.000001   0 37
G05  24247300.943          15.000       24793.586       -4134.364
C39  36035669.825          21.000           0.000       -2121.889
G10  24144360.307          21.000      -56624.957         748.843
C20  23152123.119          35.000           0.000       -1014.933
G12  24318906.072          10.000       -5605.469         332.370
G18  20550494.788          26.000      137430.204       -2238.501
G23  21526772.226          37.000        -264.812          42.739
G24  20303859.431          33.000       20729.108       -2963.372
J03  35999010.604          36.000        8591.994       -2143.066
C46  24525384.530          22.000           0.000        1175.105
G29  25193739.437          13.000       12314.773       -4094.295
G32  24605562.823          15.000       14915.562        -211.191
C32  23684736.198          25.000      154286.791       -2489.450
R14  21473333.623          38.000           0.000        1434.318
R02  23673429.829          10.000           0.000       -3265.925
C37  22844530.661          33.000           0.000        -916.723
R18  20577486.006          25.000           0.000       -4195.750
R13  21154702.507          16.000           0.000       -2013.397
G25  24851353.966          23.000      -10627.552         669.235
C30  24221408.468          13.000           0.000       -4261.769
R17  22878724.692           9.000           0.000       -6166.967
C29  24351200.914          19.000           0.000       -2255.778
R03  21403207.970          27.000           0.000       -2336.073
R04  22058622.037          25.000           0.000       -1071.973
E33  24225211.635          22.000      239747.381       -3940.776
C06  35975700.541          18.000      137040.492       -1807.852
C08  35868713.906          36.000       37654.654       -1255.455
C09  36851952.224          15.000      123682.770       -1630.967
R19  21216292.170          17.000           0.000        -962.229
C13  36153321.876          34.000        5618.549       -1119.958
C16  36207062.073          18.000      146796.712       -1938.432
C27  26609895.753          14.000           0.000       -4600.251
C23  25095853.002          20.000      266258.786       -3522.689
C38  35941911.233          29.000           0.000       -1609.717
E04  26249082.039          16.000       72155.317        -967.529
E12  24443142.764          28.000       27219.369       -1140.868
E19  24874324.064          36.000       12793.550       -2553.768
> 2023 07 25 09 20 42.000001   0 37
G05  24248083.401          13.000       28925.113       -4129.997
C39  36036075.744          21.000           0.000       -2122.688
G10  24144217.306          23.000      -57374.410         752.224
C20  23152315.885          35.000           0.000       -1014.992
G12  24318847.312          10.000       -5941.936         338.019
G18  20550916.596          24.000      139667.944       -2237.413
G23  21526765.031          37.000        -306.042          40.789
G24  20304425.439          34.000           0.362       -2961.038
J03  35999418.021          36.000       10736.625       -2142.977
C46  24525157.886          22.000           0.000        1175.952
G29  25194527.292          13.000       16403.443       -4083.456
G32  24605599.698          15.000       15127.779        -216.288
C32  23685213.468          28.000      156775.015       -2486.864
R14  21473060.812          38.000           0.000        1437.984
R02  23674038.407          13.000           0.000       -3259.977
C37  22844706.938          33.000           0.000        -917.239
R18  20578275.959          26.000           0.000       -4192.822
R13  21155083.843          17.000           0.000       -2026.730
G25  24851227.453          22.000      -11297.494         671.142
R17  22879874.695          10.000           0.000       -6166.587
C29  24351636.213          17.000           0.000       -2252.924
R03  21403648.965          25.000           0.000       -2332.635
R04  22058816.002          26.000           0.000       -1069.821
E33  24225965.013          24.000      243688.294       -3940.349
C06  35976044.403          18.000      138847.238       -1805.970
C08  35868951.641          36.000       38909.323       -1255.361
C09  36852267.306          13.000      125311.151       -1626.043
R19  21216473.544          17.000           0.000        -957.656
C13  36153539.525          33.000        6738.595       -1118.746
C16  36207433.216          20.000      148733.277       -1935.761
C27  26610782.838          14.000           0.000       -4599.040
C23  25096532.032          20.000      269780.382       -3520.018
C38  35942222.117          29.000           0.000       -1607.081
C30  24222272.170          20.000      327682.221       -4264.823
E04  26249267.310          16.000       73122.186        -965.464
E12  24443357.716          27.000       28358.506       -1137.492
E19  24874810.327          36.000       15348.468       -2555.814
> 2023 07 25 09 20 43.000001   0 37
G05  24248864.361          12.000       33057.940       -4135.052
C39  36036483.462          21.000           0.000       -2121.743
G10  24144078.802          18.000      -58127.057         752.090
C20  23152511.350          35.000           0.000       -1017.298
G12  24318786.754          10.000       -6277.423         335.171
G18  20551341.402          26.000      141904.623       -2236.703
G23  21526758.735          37.000        -347.043          39.606
G24  20304991.447          34.000        2961.409       -2963.279
J03  35999826.039          36.000       12881.347       -2144.140
C46  24524930.344          21.000           0.000        1176.853
G29  25195299.257          12.000       20481.841       -4070.566
G32  24605641.369          15.000       15344.994        -219.435
C32  23685690.738          28.000      159261.616       -2486.775
R14  21472790.999          39.000           0.000        1435.504
R02  23674640.990          12.000           0.000       -3252.208
C37  22844882.617          33.000           0.000        -915.737
R18  20579066.812          26.000           0.000       -4192.636
R13  21155462.181          16.000           0.000       -2039.116
G25  24851103.339          20.000      -11967.225         667.972
R17  22881013.607          11.000           0.000       -6166.640
C29  24352072.111          16.000           0.000       -2251.623
R03  21404083.964          27.000           0.000       -2331.722
R04  22059012.966          26.000           0.000       -1067.164
E33  24226718.991          23.000      247626.891       -3936.611
C06  35976388.265          18.000      140652.673       -1806.084
C08  35869192.375          35.000       40164.140       -1254.600
C09  36852581.189          14.000      126937.535       -1625.339
R19  21216656.717          15.000           0.000        -953.544
C13  36153755.076          34.000        7858.809       -1121.898
C16  36207802.260          21.000      150669.838       -1935.171
C27  26611665.727          13.000           0.000       -4594.154
C23  25097212.261          20.000      273300.606       -3520.016
C38  35942529.704          28.000           0.000       -1605.229
C30  24223093.002          20.000      331944.006       -4260.730
E04  26249451.383          17.000       74087.244        -965.090
E12  24443572.667          26.000       29495.768       -1137.296
E19  24875296.591          36.000       17903.439       -2555.356
> 2023 07 25 09 20 44.000001   0 37
G05  24249644.121          13.000       37187.153       -4125.920
C39  36036890.580          21.000           0.000       -2121.481
G10  24143937.000          17.000      -58878.927         749.517
C20  23152707.114          35.000           0.000       -1018.760
G12  24318727.695           9.000       -6606.651         324.739
G18  20551764.110          24.000      144142.272       -2239.131
G23  21526750.641          35.000        -385.361          38.022
G24  20305560.753          33.000        5925.893       -2964.859
J03  36000230.159          34.000       15028.797       -2149.398
C46  24524703.401          22.000           0.000        1175.296
G29  25196074.221           9.000       24550.486       -4067.602
G32  24605683.340          14.000       15568.238        -228.325
C32  23686170.405          28.000      161749.796       -2490.054
R14  21472520.886          40.000           0.000        1432.051
R02  23675251.068          10.000           0.000       -3254.106
C37  22845052.599          34.000           0.000        -919.744
R18  20579859.163          26.000           0.000       -4195.545
R13  21155845.316          15.000           0.000       -2048.164
G25  24850974.428          20.000      -12636.229         669.263
R17  22882159.414          12.000           0.000       -6166.200
C29  24352506.511          17.000           0.000       -2253.795
R03  21404522.860          26.000           0.000       -2333.382
R04  22059209.930          25.000           0.000       -1068.576
E33  24227468.473          21.000      251561.834       -3936.143
C06  35976735.424          18.000      142460.006       -1807.883
C08  35869436.706          35.000       41421.623       -1257.843
C09  36852895.072          15.000      128563.997       -1627.450
R19  21216835.993          14.000           0.000        -948.031
C13  36153969.728          34.000        8981.744       -1123.510
C16  36208175.202          21.000      152605.042       -1936.148
C23  25097893.090          20.000      276820.968       -3521.822
C38  35942837.891          29.000           0.000       -1607.398
C30  24223912.634          20.000      336203.633       -4260.170
C27  26612561.807          18.000      363889.123       -4596.634
E04  26249634.556          18.000       75052.458        -962.571
E12  24443788.817          25.000       30634.691       -1141.239
E19  24875783.154          36.000       20461.092       -2559.731
> 2023 07 25 09 20 45.000001   0 37
G05  24250429.877          11.000       41315.163       -4124.603
C39  36037298.897          21.000           0.000       -2121.764
G10  24143797.297          15.000      -59627.965         748.322
C20  23152901.380          35.000           0.000       -1020.747
G12  24318668.336           9.000       -6930.889         325.117
G18  20552188.316          23.000      146382.277       -2241.387
G23  21526740.448          34.000        -422.431          36.329
G24  20306118.667          34.000        8892.017       -2967.234
J03  36000639.976          35.000       17177.471       -2148.906
C46  24524472.561          23.000           0.000        1172.798
G29  25196841.989           9.000       28610.482       -4050.760
G32  24605725.011          11.000       15798.357        -230.054
C32  23686647.375          30.000      164240.284       -2491.403
R14  21472260.966          39.000           0.000        1430.352
R02  23675857.848           9.000           0.000       -3266.359
C37  22845229.177          35.000           0.000        -920.624
R18  20580648.816          27.000           0.000       -4197.859
R13  21156228.451          15.000           0.000       -2040.518
G25  24850846.717          22.000      -13305.327         668.694
R17  22883306.719          11.000           0.000       -6165.235
C29  24352941.210          18.000           0.000       -2254.926
R03  21404945.867          26.000           0.000       -2335.093
R04  22059411.091          25.000           0.000       -1067.799
E33  24228219.153          22.000      255500.481       -3940.006
C06  35977082.584          16.000      144271.539       -1813.569
C08  35869676.839          36.000       42680.310       -1259.709
C09  36853211.353          16.000      130190.302       -1625.379
R19  21217017.967          13.000           0.000        -949.333
C13  36154184.679          33.000       10105.805       -1126.862
C16  36208549.643          24.000      154541.537       -1936.999
C23  25098570.621          19.000      280343.447       -3522.893
C38  35943147.577          28.000           0.000       -1610.504
C30  24224730.168          20.000      340463.932       -4261.050
C27  26613450.392          18.000      368487.381       -4599.661
E04  26249812.933          17.000       76014.271        -957.694
E12  24444001.670          24.000       31776.186       -1142.766
E19  24876270.017          36.000       23019.880       -2558.849
> 2023 07 25 09 20 46.000001   0 37
G05  24251222.228          10.000       45443.371       -4128.999
C39  36037706.615          21.000           0.000       -2129.132
G10  24143653.097          15.000      -60375.362         746.578
C20  23153097.144          35.000           0.000       -1021.513
G12  24318612.575           9.000       -7257.146         330.966
G18  20552615.520          27.000      148624.520       -2243.452
G23  21526732.653          36.000        -458.428          34.958
G24  20306683.775          34.000       11859.798       -2967.257
J03  36001049.192          38.000       19327.056       -2151.804
C46  24524245.918          23.000           0.000        1171.525
G29  25197613.055           9.000       32656.990       -4045.804
G32  24605768.481          10.000       16026.637        -225.666
C32  23687124.945          27.000      166731.910       -2491.227
R14  21472000.446          38.000           0.000        1429.594
R02  23676464.328           9.000           0.000       -3258.747
C37  22845409.052          33.000           0.000        -923.412
R18  20581439.969          27.000           0.000       -4200.536
R13  21156612.785          14.000           0.000       -2037.441
G25  24850722.003          21.000      -13973.094         667.372
R17  22884453.126          12.000           0.000       -6164.464
C29  24353376.508          19.000           0.000       -2258.303
R03  21405376.669          25.000           0.000       -2336.676
R04  22059610.452          25.000           0.000       -1070.841
E33  24228968.034          22.000      259443.642       -3943.788
C06  35977433.341          16.000      146084.970       -1813.884
C08  35869910.378          34.000       43939.966       -1261.440
C09  36853523.736          17.000      131816.788       -1627.974
R19  21217198.142          13.000           0.000        -945.859
C13  36154401.129          33.000       11230.852       -1126.730
C16  36208920.486          22.000      156479.226       -1937.817
C23  25099249.951          19.000      283867.908       -3525.935
C38  35943457.562          29.000           0.000       -1613.454
C30  24225547.702          21.000      344725.587       -4262.653
C27  26614335.079          18.000      373088.142       -4601.463
E04  26249993.708          17.000       76970.126        -955.146
E12  24444216.921          26.000       32919.576       -1144.142
E19  24876757.179          36.000       25579.580       -2560.216
> 2023 07 25 09 20 47.000001   0 37
G05  24252007.385          10.000       49573.455       -4130.617
C39  36038115.832          22.000           0.000       -2127.167
G10  24143504.999          15.000      -61122.763         748.115
C20  23153292.909          35.000           0.000       -1020.746
G12  24318557.113           9.000       -7591.046         338.786
G18  20553044.224          25.000      150868.703       -2244.889
G23  21526726.657          35.000        -494.056          35.228
G24  20307241.989          31.000       14827.180       -2967.243
J03  36001457.210          38.000       21477.080       -2150.834
C46  24524023.172          21.000           0.000        1170.748
G29  25198382.922           9.000       36701.854       -4044.560
G32  24605808.953          13.000       16251.214        -224.748
C32  23687609.409          24.000      169223.361       -2491.712
R14  21471730.333          37.000           0.000        1429.644
R02  23677073.506           9.000           0.000       -3280.839
C37  22845590.427          33.000           0.000        -924.820
R18  20582227.823          29.000           0.000       -4201.962
R13  21156998.018          15.000           0.000       -2036.148
G25  24850594.292          17.000      -14642.686         669.999
R17  22885601.930          11.000           0.000       -6164.730
C29  24353810.908          19.000           0.000       -2257.328
R03  21405812.567          20.000           0.000       -2337.386
R04  22059808.615          27.000           0.000       -1073.070
E33  24229717.815          18.000      263387.443       -3942.778
C06  35977784.098          17.000      147899.720       -1815.160
C08  35870152.610          33.000       45200.063       -1258.371
C09  36853836.420          18.000      133446.739       -1631.765
R19  21217376.219          14.000           0.000        -951.459
C13  36154616.979          32.000       12356.211       -1124.459
C16  36209291.329          20.000      158419.204       -1942.507
C23  25099927.482          17.000      287392.019       -3524.202
C38  35943767.847          28.000           0.000       -1614.107
C30  24226361.939          21.000      348988.078       -4265.679
C27  26615220.067          16.000      377687.369       -4598.152
E04  26250174.482          15.000       77922.529        -945.973
E12  24444432.472          22.000       34063.341       -1143.398
E19  24877244.342          37.000       28139.620       -2560.368
> 2023 07 25 09 20 48.000001   0 37
G05  24252792.541          13.000       53703.914       -4131.786
C39  36038524.748          22.000           0.000       -2128.042
G10  24143361.998          13.000      -61876.516         754.706
C20  23153490.772          35.000           0.000       -1021.150
G12  24318498.953           9.000       -7931.704         339.716
G18  20553475.025          26.000      153113.927       -2245.437
G23  21526718.863          36.000        -529.734          36.376
G24  20307806.798          34.000       17795.046       -2968.530
J03  36001864.928          37.000       23627.032       -2150.751
C46  24523796.829          20.000           0.000        1170.407
G29  25199149.792           9.000       40745.129       -4042.839
G32  24605850.024          11.000       16478.174        -231.679
C32  23688090.576          27.000      171715.643       -2492.176
R14  21471456.623          37.000           0.000        1429.319
R02  23677684.183           9.000           0.000       -3293.833
C37  22845771.202          35.000           0.000        -924.555
R18  20583015.978          29.000           0.000       -4202.671
R13  21157385.950          15.000           0.000       -2037.423
G25  24850467.180          20.000      -15312.041         667.988
R17  22886751.335          10.000           0.000       -6166.024
C29  24354248.904          18.000           0.000       -2257.498
R03  21406242.470          22.000           0.000       -2337.349
R04  22060007.078          27.000           0.000       -1074.524
E33  24230464.898          18.000      267331.626       -3946.733
C06  35978135.755          17.000      149714.834       -1814.985
C08  35870401.438          34.000       46460.128       -1260.301
C09  36854151.202          17.000      135079.669       -1633.717
R19  21217561.191          14.000           0.000        -946.214
C13  36154832.230          32.000       13481.490       -1125.489
C16  36209660.973          22.000      160362.037       -1944.787
C23  25100606.811          16.000      290915.902       -3525.583
C38  35944078.133          31.000           0.000       -1613.051
C30  24227178.273          21.000      353252.939       -4264.858
C27  26616108.352          15.000      382285.867       -4597.264
E04  26250355.257          12.000       78868.779        -946.941
E12  24444647.123          25.000       35207.180       -1145.207
E19  24877731.205          37.000       30699.516       -2561.409
> 2023 07 25 09 20 49.000001   0 36
G05  24253578.597          14.000       57836.925       -4135.847
C39  36038933.366          24.000           0.000       -2127.367
G10  24143213.901          16.000      -62629.624         752.125
C20  23153685.637          35.000           0.000       -1019.636
G18  20553905.827          29.000      155359.608       -2246.063
G23  21526715.265          38.000        -565.590          36.979
G24  20308376.104          35.000       20764.285       -2971.039
J03  36002276.842          36.000       25776.764       -2150.500
C46  24523565.389          22.000           0.000        1169.628
G32  24605892.895          10.000       16710.603        -233.148
C32  23688568.445          27.000      174207.796       -2491.904
R14  21471177.816          40.000           0.000        1429.483
R02  23678292.162           9.000           0.000       -3301.941
C37  22845952.576          35.000           0.000        -924.763
R18  20583794.239          23.000           0.000       -4203.098
R13  21157764.587          15.000           0.000       -2017.243
G25  24850340.068          24.000      -15979.969         668.117
R17  22887899.540           9.000           0.000       -6165.099
C29  24354687.800          17.000           0.000       -2257.661
R03  21406662.179          24.000           0.000       -2336.670
R04  22060206.140          28.000           0.000       -1072.637
E33  24231213.780          20.000      271279.379       -3948.451
C06  35978486.512          15.000      151535.112       -1821.661
C08  35870643.071          35.000       47719.909       -1259.180
C09  36854468.382          17.000      136717.270       -1639.463
R19  21217743.765          15.000           0.000        -943.691
C13  36155047.781          33.000       14606.593       -1124.295
C16  36210033.615          21.000      162306.352       -1944.612
C23  25101288.540          14.000      294439.684       -3523.875
C38  35944386.319          28.000           0.000       -1612.777
C30  24227995.808          24.000      357517.455       -4264.684
C27  26616996.037          17.000      386882.885       -4597.174
E04  26250536.931           9.000       79818.754        -953.484
E12  24444864.472          28.000       36352.801       -1146.056
E19  24878218.068          37.000       33259.098       -2558.632
G15  22365344.194          29.000      259828.016       -3940.219
> 2023 07 25 09 20 50.000001   0 36
G05  24254369.449          15.000       61973.680       -4139.230
C39  36039341.683          23.000           0.000       -2122.298
G10  24143069.701          18.000      -63380.593         751.192
C20  23153882.601          35.000           0.000       -1019.941
G18  20554334.830          28.000      157604.975       -2245.712
G23  21526708.370          38.000        -601.578          35.888
G24  20308946.309          35.000           0.729       -2970.393
J03  36002687.858          37.000       27926.327       -2149.429
C46  24523334.849          24.000           0.000        1171.073
G32  24605939.962          11.000       16942.032        -227.826
C32  23689048.413          24.000      176699.586       -2490.930
R14  21470907.103          40.000           0.000        1428.923
R02  23678908.536           9.000           0.000       -3309.412
C37  22846129.753          34.000           0.000        -925.772
R18  20584578.196          23.000           0.000       -4202.568
R13  21158141.427          15.000           0.000       -2008.708
G25  24850212.356          23.000      -16647.903         667.351
R17  22889048.944           9.000           0.000       -6165.085
C29  24355120.701          16.000           0.000       -2257.281
R03  21407082.488          20.000           0.000       -2336.720
R04  22060408.500          28.000           0.000       -1071.211
E33  24231960.563          20.000      275228.891       -3948.776
C06  35978835.770          15.000      153352.556       -1815.322
C08  35870883.504          35.000       48979.524       -1259.350
C09  36854787.661          16.000      138361.516       -1645.221
R19  21217922.441          15.000           0.000        -953.218
C13  36155264.231          34.000       15731.408       -1126.069
C16  36210404.459          22.000      164251.168       -1945.604
C23  25101966.970          13.000      297962.324       -3522.525
C38  35944693.906          28.000           0.000       -1609.405
C30  24228810.943          23.000      361781.987       -4264.306
C27  26617883.423          18.000      391480.376       -4598.064
E04  26250718.905           9.000       80777.709        -965.530
E12  24445081.822          27.000       37499.281       -1146.632
E19  24878705.531          36.000       35818.476       -2561.371
G15  22366092.476          28.000      263767.840       -3939.959
> 2023 07 25 09 20 51.000001   0 35
G05  24255163.600          15.000       66113.210       -4139.422
C39  36039750.300          23.000           0.000       -2125.309
G10  24142926.100          19.000      -64132.883         752.826
C20  23154080.763          35.000           0.000       -1020.182
G18  20554763.234          27.000      159851.400       -2247.453
G23  21526697.877          38.000        -637.674          35.606
G24  20309515.915          35.000        2970.972       -2971.419
J03  36003093.177          36.000       30075.696       -2149.242
C46  24523104.008          23.000           0.000        1172.800
G32  24605981.334          10.000       17169.040        -225.892
C32  23689529.580          24.000      179190.313       -2491.179
R14  21470636.691          41.000           0.000        1429.173
C37  22846302.134          34.000           0.000        -925.568
R18  20585367.250          24.000           0.000       -4203.189
R13  21158507.773          14.000           0.000       -1996.908
G25  24850084.644          23.000      -17314.498         665.004
R17  22890198.948           9.000           0.000       -6164.681
C29  24355554.800          15.000           0.000       -2259.896
R03  21407526.781          23.000           0.000       -2336.561
R04  22060610.260          27.000           0.000       -1070.878
E33  24232711.243          21.000      279177.608       -3948.422
C06  35979183.829          15.000      155165.800       -1808.758
C08  35871126.336          35.000       50239.037       -1259.830
C09  36855107.840          15.000      140008.249       -1647.589
R19  21218104.415          14.000           0.000        -968.325
C13  36155482.480          34.000       16856.070       -1125.476
C16  36210771.704          19.000      166194.599       -1939.910
C23  25102646.000          12.000      301486.059       -3526.904
C38  35945000.894          27.000           0.000       -1609.362
C30  24229626.978          24.000      366045.671       -4262.577
C27  26618770.209          18.000      396078.064       -4596.954
E04  26250903.278          12.000       81745.684        -971.133
E12  24445299.771          29.000       38645.387       -1146.748
E19  24879192.394          36.000       38377.614       -2560.020
G15  22366841.658          29.000      267708.032       -3940.084
> 2023 07 25 09 20 52.000001   0 35
G05  24255951.754          14.000       70252.797       -4137.264
C39  36040158.018          21.000           0.000       -2123.924
G10  24142781.300          19.000      -64885.767         751.837
C20  23154277.427          35.000           0.000       -1018.867
G18  20555190.438          28.000      162098.054       -2247.224
G23  21526687.984          37.000        -673.848          36.728
G24  20310079.525          36.000        5941.589       -2970.734
J03  36003505.692          37.000       32224.907       -2149.208
C46  24522878.265          23.000           0.000        1175.130
G32  24606024.204           9.000       17394.637        -224.328
C32  23690008.049          25.000      181681.765       -2492.174
R14  21470377.970          41.000           0.000        1429.107
C37  22846474.815          34.000           0.000        -926.138
R18  20586155.404          27.000           0.000       -4203.869
R13  21158891.807          12.000           0.000       -1997.322
G25  24849957.832          18.000      -17979.629         665.592
R17  22891340.858           9.000           0.000       -6165.033
C29  24355987.101          13.000           0.000       -2259.849
R03  21407975.570          24.000           0.000       -2335.971
R04  22060816.218          27.000           0.000       -1070.304
E33  24233461.324          21.000      283126.014       -3946.609
C06  35979530.689          15.000      156974.128       -1808.630
C08  35871369.168          35.000       51498.418       -1259.264
C09  36855424.720          14.000      141652.838       -1645.358
R19  21218286.389          13.000           0.000        -972.416
C13  36155701.029          33.000       17980.642       -1122.854
C16  36211147.045          24.000      168133.850       -1938.317
C23  25103321.732          12.000      305010.891       -3522.561
C38  35945311.778          28.000           0.000       -1610.927
C30  24230441.215          23.000      370308.494       -4263.778
C27  26619655.496          19.000      400675.642       -4598.645
E04  26251087.051          14.000       82717.825        -973.622
E12  24445517.720          28.000       39790.610       -1143.868
E19  24879678.957          37.000       40936.536       -2558.954
G15  22367590.539          28.000      271647.600       -3939.316
> 2023 07 25 09 20 53.000001   0 35
G05  24256737.210          13.000       74391.048       -4138.072
C39  36040565.136          21.000           0.000       -2124.938
G10  24142634.402          19.000      -65638.642         752.825
C20  23154471.693          35.000           0.000       -1018.084
G18  20555619.741          29.000      164345.629       -2247.550
G23  21526681.089          35.000        -710.168          35.885
G24  20310644.933          36.000        8912.698       -2971.225
J03  36003915.208          38.000       34374.077       -2148.604
C46  24522653.121          19.000           0.000        1170.567
G32  24606067.974          10.000       17615.455        -218.144
C32  23690484.119          23.000      184173.830       -2492.077
R14  21470110.255          41.000           0.000        1429.529
C37  22846648.994          33.000           0.000        -925.595
R18  20586944.758          27.000           0.000       -4203.963
R13  21159267.147          11.000           0.000       -1983.707
G25  24849830.121          18.000      -18645.410         665.753
R17  22892485.765           9.000           0.000       -6164.775
C29  24356420.301          14.000           0.000       -2260.258
R03  21408417.464          25.000           0.000       -2335.443
R04  22061018.278          22.000           0.000       -1070.879
E33  24234208.407          21.000      287070.212       -3941.465
C06  35979881.446          16.000      158783.172       -1809.896
C08  35871609.302          34.000       52757.668       -1259.594
C09  36855741.901          13.000      143294.963       -1641.203
R19  21218473.160          12.000           0.000        -976.116
C13  36155917.779          32.000       19105.056       -1124.555
C16  36211519.687          24.000      170070.929       -1935.491
C23  25103998.064          12.000      308531.999       -3517.695
C38  35945622.363          28.000           0.000       -1611.931
C30  24231254.851          23.000      374571.356       -4262.256
C27  26620542.582          19.000      405274.278       -4598.548
E04  26251270.524          15.000       83691.700        -973.964
E12  24445735.370          27.000       40934.947       -1145.807
E19  24880166.119          36.000       43495.346       -2558.655
G15  22368340.320          27.000      275587.014       -3939.571
> 2023 07 25 09 20 54.000001   0 35
G05  24257522.067          14.000       78528.877       -4136.911
C39  36040973.153          19.000           0.000       -2125.696
G10  24142485.705          18.000      -66391.218         755.929
C20  23154666.558          35.000           0.000       -1017.864
G18  20556047.544          29.000      166594.136       -2248.993
G23  21526676.592          36.000        -746.555          37.988
G24  20311209.742          37.000       11884.246       -2971.641
J03  36004322.027          38.000       36523.074       -2148.205
C46  24522426.477          18.000           0.000        1169.496
G32  24606107.546          14.000       17829.185        -211.909
C32  23690960.190          20.000      186666.067       -2491.045
R14  21469840.442          41.000           0.000        1429.009
C37  22846820.176          32.000           0.000        -925.178
R18  20587731.413          26.000           0.000       -4204.281
R13  21159628.397          11.000           0.000       -1983.602
G25  24849703.009          19.000      -19311.146         665.075
R17  22893636.069           9.000           0.000       -6165.644
C29  24356852.302          14.000           0.000       -2260.622
R03  21408854.861          24.000           0.000       -2335.320
R04  22061206.847          14.000           0.000       -1071.502
E33  24234956.089          21.000      291012.578       -3942.331
C06  35980229.505          17.000      160591.798       -1807.874
C08  35871851.234          34.000       54016.810       -1260.298
C09  36856059.981          12.000      144938.715       -1649.262
R19  21218659.331           9.000           0.000        -994.998
C13  36156136.627          34.000       20229.331       -1125.108
C16  36211892.628          22.000      172006.713       -1936.587
C23  25104672.897          13.000      312049.656       -3516.701
C38  35945931.150          28.000           0.000       -1611.259
C30  24232069.987          22.000      378834.332       -4262.970
C27  26621427.569          18.000      409872.940       -4599.770
E04  26251455.496          14.000       84666.317        -979.545
E12  24445955.117          28.000       42080.717       -1146.588
E19  24880652.683          36.000       46053.907       -2558.361
G15  22369087.103          23.000      279525.656       -3937.756
> 2023 07 25 09 20 55.000001   0 35
G05  24258304.225          13.000       82665.554       -4136.630
C39  36041379.372          19.000           0.000       -2123.737
G10  24142338.507          17.000      -67148.152         758.210
C20  23154862.023          35.000           0.000       -1018.360
G18  20556472.950          30.000      168843.418       -2249.326
G23  21526667.298          36.000        -782.988          36.371
G24  20311779.048          37.000       14856.227       -2972.625
J03  36004730.644          37.000       38671.916       -2148.706
C46  24522201.933          20.000           0.000        1167.817
G32  24606144.121          15.000       18035.881        -201.792
C32  23691443.155          19.000      189158.853       -2494.197
R14  21469569.130          42.000           0.000        1429.238
C37  22846996.453          31.000           0.000        -926.286
R18  20588517.769          27.000           0.000       -4204.818
R13  21159997.442          10.000           0.000       -1987.906
G25  24849569.901          19.000      -19978.062         668.550
R17  22894775.879           9.000           0.000       -6160.978
C29  24357284.903          12.000           0.000       -2261.315
R03  21409299.154          21.000           0.000       -2334.998
R04  22061386.123          16.000           0.000       -1072.060
E33  24235707.069          20.000      294957.337       -3947.349
C06  35980578.164          18.000      162401.050       -1811.429
C08  35872093.766          35.000       55275.889       -1258.289
C09  36856379.859          10.000      146587.753       -1646.907
R19  21218855.095           9.000           0.000       -1021.512
C13  36156344.683          34.000       21353.428       -1124.709
C16  36212263.472          23.000      173943.494       -1937.026
C23  25105351.327          12.000      315562.694       -3509.860
C38  35946238.137          27.000           0.000       -1610.397
C30  24232883.024          23.000      383096.882       -4262.339
C27  26622314.055          17.000      414470.585       -4596.831
E04  26251641.067          14.000       85647.738        -983.319
E12  24446175.165          27.000       43228.363       -1147.992
E19  24881139.546          36.000       48612.294       -2556.736
G15  22369829.689          17.000      283460.376       -3931.591
> 2023 07 25 09 20 56.000001   0 35
G05  24259089.382          14.000       86801.019       -4132.575
C39  36041786.191          23.000           0.000       -2121.481
G10  24142190.110          15.000      -67908.233         762.385
C20  23155058.986          35.000           0.000       -1020.430
G18  20556899.255          26.000      171091.974       -2247.392
G23  21526660.103          35.000        -819.499          36.915
G24  20312347.155          38.000       17828.629       -2972.728
J03  36005141.060          37.000       40820.740       -2148.571
C46  24521979.787          20.000           0.000        1166.442
G32  24606183.394          16.000       18237.800        -200.596
C32  23691919.825          21.000      191653.077       -2494.011
R14  21469298.417          42.000           0.000        1428.399
C37  22847179.027          32.000           0.000        -926.213
R18  20589301.426          23.000           0.000       -4204.412
R13  21160369.484           9.000           0.000       -1993.792
G25  24849442.189          20.000      -20647.832         670.892
R17  22895919.288          12.000           0.000       -6142.347
C29  24357720.201          13.000           0.000       -2269.700
R03  21409743.446          25.000           0.000       -2335.023
R04  22061583.986          16.000           0.000       -1069.732
E33  24236458.649          18.000      298900.981       -3943.485
C06  35980928.322          18.000      164212.808       -1814.736
C08  35872337.797          35.000       56534.820       -1259.221
C09  36856697.040          10.000      148235.597       -1652.675
R19  21219048.162           9.000           0.000       -1030.073
C13  36156562.333          32.000       22477.497       -1123.649
C16  36212636.713          24.000      175880.919       -1938.084
C23  25106026.759          13.000      319074.245       -3513.125
C38  35946546.923          27.000           0.000       -1610.072
C30  24233701.458          22.000      387359.755       -4262.508
C27  26623199.642          16.000      419062.393       -4595.249
E04  26251825.439          13.000       86630.517        -983.393
E12  24446393.114          25.000       44374.659       -1146.138
E19  24881626.708          36.000       51170.570       -2558.795
G15  22370575.573          16.000      287391.540       -3927.530
> 2023 07 25 09 20 57.000001   0 36
G05  24259875.738          15.000       90934.124       -4134.562
C39  36042194.208          22.000           0.000       -2122.372
G10  24142040.213          13.000      -68671.766         763.649
C20  23155254.451          35.000           0.000       -1018.942
G12  24317804.035          19.000           0.000         365.046
G18  20557330.356          26.000      173339.731       -2248.814
G23  21526653.208          36.000        -855.896          36.219
G24  20312913.463          38.000       20801.701       -2972.134
J03  36005549.976          37.000       42969.655       -2148.927
C46  24521758.840          20.000           0.000        1168.874
G32  24606221.168          16.000       18435.941        -194.810
C32  23692392.898          26.000      194146.863       -2492.709
R14  21469028.604          42.000           0.000        1428.011
C37  22847366.697          32.000           0.000        -926.524
R18  20590094.977          21.000           0.000       -4206.479
R13  21160734.032          12.000           0.000       -1992.117
G25  24849314.777          20.000      -21319.169         671.244
R17  22897071.390          14.000           0.000       -6141.927
C29  24358157.299          13.000           0.000       -2270.408
R03  21410180.543          25.000           0.000       -2334.574
R04  22061793.241          18.000           0.000       -1069.082
E33  24237207.830          16.000      302847.622       -3948.804
C06  35981279.079          18.000      166026.714       -1814.175
C08  35872578.830          35.000       57793.935       -1258.295
C09  36857016.019           9.000      149889.894       -1654.794
R19  21219249.622           9.000           0.000       -1040.564
C13  36156778.783          33.000       23601.566       -1124.274
C16  36213008.756          22.000      177818.770       -1938.204
C23  25106705.789          12.000      322588.035       -3513.591
C38  35946855.410          28.000           0.000       -1612.098
C30  24234520.191          21.000      391622.232       -4262.202
C27  26624084.930          14.000      423657.361       -4594.747
E04  26252013.109          11.000       87611.098        -976.401
E12  24446611.363          27.000       45521.433       -1147.455
E19  24882113.271          36.000       53728.914       -2556.842
G15  22371321.456          16.000      291319.465       -3930.340
> 2023 07 25 09 20 58.000001   0 36
G05  24260659.695          14.000       95069.404       -4137.014
C39  36042603.425          20.000           0.000       -2126.099
G10  24141893.615          13.000      -69434.450         760.009
C20  23155451.115          35.000           0.000       -1017.669
G12  24317721.292           9.000          -0.234         362.032
G18  20557757.261          27.000      175588.616       -2249.137
G23  21526642.116          36.000        -892.275          36.744
G24  20313477.972          38.000       23775.279       -2973.943
J03  36005957.095          37.000       45118.435       -2149.860
C46  24521536.693          19.000           0.000        1170.992
G32  24606255.644          16.000       18625.504        -188.032
C32  23692864.771          28.000      196638.233       -2490.925
R14  21468767.485          41.000           0.000        1428.610
C37  22847549.870          33.000           0.000        -928.373
R18  20590893.624          22.000           0.000       -4206.591
R13  21161103.076          10.000           0.000       -1990.880
G25  24849178.971          20.000      -21992.470         675.788
R17  22898218.396          15.000           0.000       -6141.858
R03  21410624.536          24.000           0.000       -2334.045
R04  22062002.796          24.000           0.000       -1068.451
E33  24237957.012          14.000      306792.776       -3943.558
C06  35981629.836          17.000      167839.214       -1809.704
C08  35872819.864          35.000       59052.929       -1259.179
C09  36857337.996           9.000      151544.759       -1652.418
R19  21219451.682           9.000           0.000       -1059.390
C13  36156996.432          34.000       24725.635       -1123.854
C16  36213386.194          24.000      179757.840       -1939.386
C23  25107384.819          13.000      326104.407       -3518.671
C38  35947161.798          27.000           0.000       -1610.576
C29  24358603.390          22.000      208421.800       -2258.044
C30  24235337.725          22.000      395883.946       -4261.962
C27  26624971.116          14.000      428250.887       -4590.889
E04  26252198.981          13.000       88584.639        -971.166
E12  24446830.212          27.000       46668.294       -1146.860
E19  24882599.535          36.000       56287.105       -2558.556
G15  22372077.833          18.000      295251.767       -3935.287
> 2023 07 25 09 20 59.000001   0 36
G05  24261446.650          12.000       99206.826       -4137.999
C39  36043012.941          23.000           0.000       -2127.480
G10  24141747.316           9.000      -70196.724         765.444
C20  23155644.781          35.000           0.000       -1018.759
G12  24317649.342          10.000        -361.751         363.111
G18  20558185.964          26.000      177837.956       -2249.020
G23  21526637.919          36.000        -928.720          36.211
G24  20314042.181          38.000       26749.336       -2975.549
J03  36006364.513          37.000       47267.267       -2149.539
C46  24521313.948          19.000           0.000        1171.296
G32  24606291.619          14.000       18813.652        -187.087
C32  23693338.143          30.000      199128.805       -2489.808
R14  21468494.374          41.000           0.000        1428.459
C37  22847732.444          34.000           0.000        -926.918
R18  20591672.485          22.000           0.000       -4206.606
R13  21161480.215          10.000           0.000       -1990.568
G25  24849048.562          20.000      -22669.332         678.448
R17  22899358.507          14.000           0.000       -6141.764
R03  21411061.034          26.000           0.000       -2333.974
R04  22062204.257          26.000           0.000       -1068.357
E33  24238707.992          13.000      310736.254       -3942.105
C06  35981975.796          16.000      169648.337       -1808.517
C08  35873059.098          35.000       60311.936       -1260.844
C09  36857656.375           9.000      153197.461       -1650.212
R19  21219660.338           9.000           0.000       -1071.289
C13  36157214.381          33.000       25849.629       -1124.691
C16  36213762.734          24.000      181697.629       -1941.245
C23  25108065.648          13.000      329619.909       -3513.915
C38  35947471.184          27.000           0.000       -1611.169
C29  24359038.988          17.000      210680.378       -2260.696
C30  24236155.559          22.000      400145.333       -4261.294
C27  26625855.804          14.000      432842.055       -4590.522
E04  26252383.353          15.000       89553.957        -968.251
E12  24447049.959          27.000       47815.702       -1146.123
E19  24883086.698          36.000       58845.110       -2558.731
G15  22372832.710          25.000      299187.959       -3937.633
> 2023 07 25 09 21 00.000001   0 36
G05  24262230.907          10.000      103347.668       -4143.691
C39  36043421.558          21.000           0.000       -2127.057
G10  24141596.221           9.000      -70961.068         763.412
C20  23155839.046          32.000           0.000       -1017.204
G12  24317582.488          10.000        -725.205         361.384
G18  20558616.766          26.000      180087.125       -2249.703
G23  21526631.323          32.000        -965.177          35.703
G24  20314607.890          34.000       29723.944       -2975.332
J03  36006775.828          34.000       49415.907       -2149.878
C46  24521090.602          18.000           0.000        1170.724
G32  24606326.994          14.000       18997.885        -182.873
C32  23693809.717          30.000      201618.543       -2489.668
R14  21468224.261          42.000           0.000        1427.914
C37  22847906.923          29.000           0.000        -928.240
R18  20592455.842          21.000           0.000       -4206.300
R13  21161846.562          11.000           0.000       -1995.369
G25  24848916.653          20.000      -23346.696         676.272
R17  22900499.817          13.000           0.000       -6140.704
R03  21411496.333          26.000           0.000       -2334.055
R04  22062407.216          26.000           0.000       -1068.394
E33  24239457.173          11.000      314680.573       -3943.975
C06  35982324.155          15.000      171456.664       -1807.181
C08  35873304.328          35.000       61570.903       -1257.906
C09  36857973.856           9.000      154846.011       -1645.191
R19  21219863.297          11.000           0.000       -1086.016
C13  36157428.733          33.000       26973.428       -1124.851
C16  36214137.474          25.000      183638.096       -1939.649
C23  25108742.579          12.000      333132.021       -3511.942
C38  35947781.469          25.000           0.000       -1611.166
C29  24359465.293          19.000      212941.796       -2262.906
C30  24236968.896          21.000      404406.744       -4262.404
C27  26626741.391          13.000      437432.500       -4590.573
E04  26252569.824          16.000       90521.592        -966.899
E12  24447269.408          25.000       48963.653       -1148.050
E19  24883573.261          36.000       61403.018       -2559.647
G15  22373588.187          23.000      303127.042       -3940.045
> 2023 07 25 09 21 01.000001   0 36
G05  24263018.162          10.000      107492.116       -4144.302
C39  36043831.675          21.000           0.000       -2128.026
G10  24141446.624           9.000      -71723.429         761.643
C20  23156036.310          34.000           0.000       -1018.459
G12  24317512.337          11.000       -1087.581         363.324
G18  20559046.368          24.000      182335.994       -2247.764
G23  21526628.026          34.000       -1001.682          35.823
G24  20315172.998          37.000       32698.965       -2974.497
J03  36007186.244          36.000       51564.512       -2148.365
C46  24520866.657          18.000           0.000        1172.958
G32  24606365.368          12.000       19184.360        -187.092
C32  23694286.387          27.000      204107.912       -2489.625
R14  21467960.743          41.000           0.000        1427.084
C37  22848082.901          32.000           0.000        -928.693
R18  20593237.701          19.000           0.000       -4206.810
R13  21162218.904          12.000           0.000       -1999.236
G25  24848785.044          19.000      -24024.248         677.509
R17  22901646.823          10.000           0.000       -6141.099
R03  21411933.730          27.000           0.000       -2333.847
R04  22062612.574          25.000           0.000       -1067.488
E33  24240207.554          11.000      318625.609       -3946.738
C06  35982672.514          15.000      173262.925       -1805.094
C08  35873547.160          35.000       62829.704       -1258.697
C09  36858288.938           9.000      156488.682       -1638.835
R19  21220071.653          10.000           0.000       -1106.308
C13  36157643.984          33.000       28097.205       -1123.687
C16  36214510.416          24.000      185577.965       -1940.227
C23  25109419.810          12.000      336646.969       -3517.474
C38  35948092.653          25.000           0.000       -1610.473
C29  24359889.799          24.000      215204.624       -2263.051
C30  24237784.631          18.000      408668.530       -4260.795
C27  26627626.078          14.000      442022.313       -4590.060
E04  26252757.794          16.000       91488.388        -967.508
E12  24447489.755          25.000       50111.665       -1149.937
E19  24884059.824          36.000       63960.793       -2556.684
G15  22374343.065          26.000      307066.601       -3939.059
> 2023 07 25 09 21 02.000001   0 36
G05  24263809.614          11.000      111635.266       -4142.425
C39  36044240.591          21.000           0.000       -2126.626
G10  24141299.426           9.000      -72485.140         761.652
C20  23156230.875          34.000           0.000       -1018.584
G12  24317443.984          13.000       -1449.859         362.168
G18  20559474.172          22.000      184583.804       -2248.703
G23  21526622.629          34.000       -1038.119          36.653
G24  20315739.306          38.000       35674.542       -2976.212
J03  36007590.364          36.000       53712.996       -2149.368
C46  24520638.815          18.000           0.000        1173.871
C27  26628463.698          19.000           0.000       -4594.203
G32  24606402.542          13.000       19375.161        -192.510
C32  23694765.755          23.000      206597.153       -2490.161
R14  21467695.427          41.000           0.000        1427.214
C37  22848260.378          34.000           0.000        -927.809
R18  20594018.960          24.000           0.000       -4207.696
R13  21162593.045          12.000           0.000       -2005.260
G25  24848650.437          20.000      -24701.227         675.639
R17  22902797.726           9.000           0.000       -6139.490
R03  21412372.926          28.000           0.000       -2333.148
R04  22062820.930          25.000           0.000       -1069.074
E33  24240961.532          13.000      322573.149       -3948.088
C06  35983022.672          14.000      175069.758       -1808.933
C08  35873789.992          35.000       64088.552       -1259.447
C09  36858601.921           9.000      158122.669       -1629.605
R19  21220280.608           9.000           0.000       -1123.962
C13  36157861.333          32.000       29220.937       -1124.134
C16  36214884.257          26.000      187517.442       -1939.667
C23  25110094.943          15.000      340168.064       -3524.015
C38  35948408.035          27.000           0.000       -1610.564
C29  24360314.605          25.000      217468.355       -2262.894
C30  24238603.664          18.000      412931.012       -4262.533
E04  26252947.263          17.000       92456.330        -966.301
E12  24447711.901          24.000       51261.507       -1150.437
E19  24884546.987          35.000       66518.516       -2558.882
G15  22375098.841          28.000      311005.427       -3939.206
> 2023 07 25 09 21 03.000001   0 36
G05  24264592.672          12.000      115777.071       -4141.218
C39  36044649.808          20.000           0.000       -2126.722
G10  24141155.826           9.000      -73245.941         760.109
C20  23156426.639          35.000           0.000       -1016.827
G12  24317379.229          12.000       -1813.261         366.323
G18  20559898.079          22.000      186833.651       -2251.138
G23  21526613.336          35.000       -1074.658          36.469
G24  20316304.415          39.000       38650.640       -2977.384
J03  36007998.981          36.000       55861.612       -2148.011
C46  24520407.375          18.000           0.000        1172.938
C27  26629290.226          20.000           0.000       -4594.042
G32  24606441.815          13.000       19571.439        -197.790
C32  23695238.228          24.000      209085.484       -2488.523
R14  21467425.614          40.000           0.000        1427.261
C37  22848434.258          33.000           0.000        -929.658
R18  20594806.815          27.000           0.000       -4208.611
R13  21162970.783          13.000           0.000       -2024.446
G25  24848514.032          20.000      -25376.823         676.336
R17  22903945.631           9.000           0.000       -6139.180
R03  21412812.421          26.000           0.000       -2333.358
R04  22063019.992          23.000           0.000       -1067.130
E33  24241712.512          15.000      326521.815       -3946.750
C06  35983371.330          14.000      176877.725       -1808.152
C08  35874031.025          35.000       65347.395       -1259.182
C09  36858911.307           9.000      159752.034       -1628.142
R19  21220492.562          10.000           0.000       -1129.592
C13  36158076.884          32.000       30344.664       -1125.117
C16  36215258.099          26.000      189457.400       -1939.870
C23  25110770.375          17.000      343694.803       -3529.607
C38  35948718.620          28.000           0.000       -1610.865
C29  24360745.107          22.000      219730.217       -2261.676
C30  24239421.797          18.000      417193.277       -4263.678
E04  26253132.834          15.000       93424.510        -968.919
E12  24447932.249          23.000       52411.181       -1149.411
E19  24885033.550          35.000       69076.097       -2557.646
G15  22375853.419          28.000      314944.269       -3938.683
> 2023 07 25 09 21 04.000001   0 36
G05  24265378.428          12.000      119918.585       -4142.256
C39  36045058.126          20.000           0.000       -2122.925
G10  24141014.923          11.000      -74005.022         758.385
C20  23156621.804          36.000           0.000       -1016.949
G12  24317303.981          12.000       -2177.979         361.753
G18  20560325.283          20.000      189085.926       -2253.507
G23  21526608.239          35.000       -1111.144          36.064
G24  20316871.023          38.000       41627.247       -2977.153
J03  36008409.397          37.000       58010.103       -2149.263
C46  24520173.537          18.000           0.000        1175.639
C27  26630173.714          17.000           0.000       -4602.372
G32  24606474.792          12.000       19769.258        -194.867
C32  23695714.598          24.000      211574.991       -2491.084
R14  21467164.195          40.000           0.000        1426.347
C37  22848603.641          32.000           0.000        -929.202
R18  20595597.667          24.000           0.000       -4209.521
R13  21163353.918          14.000           0.000       -2043.697
G25  24848379.725          20.000      -26052.670         675.176
R17  22905091.138           9.000           0.000       -6137.528
R03  21413249.519          27.000           0.000       -2332.671
R04  22063221.453          21.000           0.000       -1068.028
E33  24242464.691          16.000      330469.190       -3946.763
C06  35983719.989          15.000      178687.915       -1811.301
C08  35874272.058          36.000       66606.241       -1258.870
C09  36859218.894           9.000      161377.690       -1621.773
R19  21220707.813           9.000           0.000       -1135.100
C13  36158289.437          32.000       31468.368       -1124.220
C16  36215629.841          25.000      191397.377       -1939.811
C23  25111447.007          23.000      347225.432       -3532.216
C38  35949029.505          28.000           0.000       -1610.825
C29  24361177.708          18.000      221991.781       -2260.222
C30  24240241.130          17.000      421456.440       -4262.106
E04  26253317.506          14.000       94393.586        -969.157
E12  24448151.397          25.000       53560.801       -1150.325
E19  24885520.413          36.000       71633.582       -2558.147
G15  22376607.097          27.000      318882.416       -3937.792
> 2023 07 25 09 21 05.000001   0 36
G05  24266163.585          13.000      124060.093       -4140.920
C39  36045466.143          22.000           0.000       -2124.317
G10  24140876.719          13.000      -74762.649         757.111
C20  23156817.869          36.000           0.000       -1017.391
G12  24317229.932          12.000       -2539.884         360.956
G18  20560756.085          23.000      191340.181       -2254.745
G23  21526598.346          35.000       -1147.594          36.766
G24  20317435.232          38.000       44604.442       -2977.103
J03  36008818.614          37.000       60158.627       -2148.247
C46  24519938.800          17.000           0.000        1177.104
C27  26631055.104          19.000           0.000       -4603.545
G32  24606513.165          10.000       19964.433        -199.276
C32  23696189.469          23.000      214066.033       -2491.334
R14  21466899.178          39.000           0.000        1426.356
C37  22848777.820          31.000           0.000        -926.175
R18  20596391.518          23.000           0.000       -4210.339
R13  21163737.053          15.000           0.000       -2049.974
G25  24848249.315          20.000      -26726.333         673.467
R17  22906236.945           9.000           0.000       -6137.567
R03  21413687.216          27.000           0.000       -2332.534
R04  22063413.620          18.000           0.000       -1067.268
E33  24243217.770          16.000      334416.950       -3947.401
C06  35984068.648          16.000      180499.451       -1811.948
C08  35874512.792          36.000       67865.005       -1258.335
C09  36859527.680           9.000      163000.053       -1622.739
R19  21220918.267           9.000           0.000       -1142.748
C13  36158505.887          32.000       32591.980       -1123.825
C16  36215998.586          25.000      193336.235       -1938.346
C23  25112125.138          23.000      350757.945       -3532.115
C38  35949337.092          27.000           0.000       -1609.595
C29  24361605.212          16.000      224253.857       -2264.907
C30  24241060.763          16.000      425719.473       -4263.118
E04  26253505.776          12.000       95362.345        -968.622
E12  24448368.747          26.000       54710.691       -1149.834
E19  24886006.976          36.000       74190.996       -2557.953
G15  22377354.180          26.000      322819.878       -3937.332
> 2023 07 25 09 21 06.000001   0 36
G05  24266944.544          13.000      128200.075       -4139.221
C39  36045874.760          20.000           0.000       -2124.796
G10  24140735.816          14.000      -75518.794         755.615
C20  23157014.532          36.000           0.000       -1017.862
G12  24317158.581          13.000       -2900.134         360.113
G18  20561179.092          20.000      193594.935       -2254.606
G23  21526591.151          36.000       -1184.043          37.104
G24  20317999.741          37.000       47582.117       -2978.807
J03  36009225.732          38.000       62307.074       -2148.966
C46  24519701.364          17.000           0.000        1175.876
C27  26631937.993          18.000           0.000       -4603.140
G32  24606548.841           9.000       20164.862        -202.834
C32  23696665.240          22.000      216557.493       -2491.837
R14  21466630.864          39.000           0.000        1426.273
C37  22848954.098          30.000           0.000        -930.567
R18  20597181.471          24.000           0.000       -4210.534
R13  21164125.884          16.000           0.000       -2052.130
G25  24848120.104          20.000      -27399.813         673.313
R17  22907386.649           9.000           0.000       -6135.939
R03  21414122.514          29.000           0.000       -2332.303
R04  22063617.778          18.000           0.000       -1069.554
E33  24243968.750          16.000      338361.139       -3944.004
C06  35984416.107          18.000      182310.589       -1812.777
C08  35874754.424          36.000       69123.815       -1258.874
C09  36859836.466           9.000      164622.263       -1622.055
R19  21221132.918           9.000           0.000       -1157.177
C13  36158716.641          32.000       33715.483       -1122.977
C16  36216368.530          26.000      195274.337       -1937.319
C23  25112802.069          23.000      354289.937       -3532.555
C38  35949643.180          26.000           0.000       -1610.291
C29  24362033.315          18.000      226518.244       -2263.638
C30  24241879.196          14.000      429978.121       -4255.986
E04  26253693.446          14.000       96331.217        -968.855
E12  24448586.396          26.000       55860.412       -1149.080
E19  24886493.539          36.000       76748.288       -2557.469
G15  22378100.963          24.000      326756.534       -3936.519
> 2023 07 25 09 21 07.000001   0 36
G05  24267725.503          12.000      132339.224       -4138.867
C39  36046281.878          22.000           0.000       -2126.544
G10  24140600.310          14.000      -76273.401         754.356
C20  23157211.496          36.000           0.000       -1017.454
G12  24317084.233          12.000       -3258.357         355.066
G18  20561609.294          17.000      195848.684       -2253.994
G23  21526588.753          35.000       -1220.358          35.827
G24  20318569.647          38.000       50560.457       -2978.303
J03  36009634.649          38.000       64455.669       -2148.748
C46  24519465.427          18.000           0.000        1173.456
C27  26632819.683          19.000           0.000       -4598.257
G32  24606586.315           9.000       20368.325        -208.624
C32  23697141.310          19.000      219047.419       -2488.290
R14  21466364.048          38.000           0.000        1425.934
C37  22849134.873          31.000           0.000        -929.977
R18  20597977.420          25.000           0.000       -4211.205
R13  21164515.614          16.000           0.000       -2062.199
G25  24847984.598          19.000      -28074.290         676.879
R17  22908527.959           9.000           0.000       -6136.299
R03  21414560.511          30.000           0.000       -2332.160
R04  22063813.543          19.000           0.000       -1069.808
E33  24244717.631          15.000      342306.275       -3946.003
C06  35984764.466          18.000      184123.184       -1812.110
C08  35874998.156          36.000       70382.752       -1258.994
C09  36860144.653          10.000      166245.876       -1625.419
R19  21221349.968           9.000           0.000       -1181.293
C13  36158934.890          31.000       34839.175       -1123.432
C16  36216739.373          26.000      197212.785       -1938.563
C23  25113480.199          21.000      357822.217       -3533.143
C38  35949954.364          26.000           0.000       -1609.538
C29  24362465.016          20.000      228781.703       -2263.708
C30  24242697.030          12.000      434230.096       -4250.963
E04  26253879.617          13.000       97300.278        -969.207
E12  24448805.844          23.000       57010.708       -1151.709
E19  24886980.102          36.000       79305.733       -2558.617
G15  22378849.545          21.000      330693.086       -3935.604
> 2023 07 25 09 21 08.000001   0 36
G05  24268506.163          12.000      136477.442       -4137.819
C39  36046689.296          22.000           0.000       -2121.517
G10  24140458.508          16.000      -77027.590         753.588
C20  23157406.061          36.000           0.000       -1016.859
G12  24317014.081          14.000       -3608.958         346.656
G18  20562043.993          17.000      198102.995       -2254.901
G23  21526577.960          35.000       -1256.604          36.289
G24  20319135.355          38.000       53539.424       -2978.484
J03  36010045.364          37.000       66604.258       -2148.846
C46  24519229.191          20.000           0.000        1174.594
C27  26633701.072          19.000           0.000       -4591.638
G32  24606624.388           9.000       20578.300        -208.880
C32  23697621.878          17.000      221535.452       -2487.213
R14  21466100.831          37.000           0.000        1426.171
C37  22849315.948          31.000           0.000        -930.544
R18  20598763.476          27.000           0.000       -4211.865
R13  21164903.845          15.000           0.000       -2072.351
G25  24847853.289          18.000      -28751.413         680.156
C30  24243567.028          21.000           0.000       -4257.791
R17  22909672.867          11.000           0.000       -6135.945
R03  21414993.112          30.000           0.000       -2332.287
R04  22064016.202          20.000           0.000       -1068.250
E33  24245467.712          14.000      346253.903       -3949.026
C06  35985109.227          19.000      185934.756       -1812.078
C08  35875240.388          36.000       71641.736       -1259.953
C09  36860454.039           9.000      167868.734       -1620.905
R19  21221571.515           9.000           0.000       -1204.380
C13  36159154.338          32.000       35962.860       -1125.090
C16  36217109.317          27.000      199150.973       -1939.253
C23  25114157.730          24.000      361354.325       -3531.273
C38  35950263.450          27.000           0.000       -1611.459
C29  24362895.818          20.000      231045.258       -2263.544
E04  26254067.587          14.000       98269.233        -965.381
E12  24449026.191          25.000       58162.559       -1151.832
E19  24887466.965          36.000       81863.093       -2557.306
G15  22379591.231          14.000      334623.186       -3928.207
> 2023 07 25 09 21 09.000001   0 35
G05  24269290.720          13.000      140614.746       -4137.051
C39  36047097.014          19.000           0.000       -2121.901
G10  24140315.208          16.000      -77781.247         753.426
C20  23157600.027          36.000           0.000       -1015.679
G12  24316946.328          13.000       -3950.786         337.372
G18  20562477.793          17.000      200357.139       -2254.621
G23  21526573.763          36.000       -1292.847          36.736
G24  20319703.462          37.000       56518.932       -2980.343
J03  36010454.881          38.000       68752.813       -2148.099
C46  24518993.854          21.000           0.000        1172.819
C27  26634582.162          20.000           0.000       -4589.788
C32  23698098.848          15.000      224021.445       -2484.900
R14  21465840.611          37.000           0.000        1425.200
C37  22849501.819          31.000           0.000        -930.190
R18  20599548.632          25.000           0.000       -4212.213
R13  21165287.579          14.000           0.000       -2077.007
G25  24847716.884          18.000      -29432.631         681.140
C30  24244422.935          18.000           0.000       -4272.905
R17  22910815.975          13.000           0.000       -6137.089
R03  21415429.610          29.000           0.000       -2332.064
R04  22064223.059          21.000           0.000       -1066.707
E33  24246217.793          13.000      350203.334       -3950.292
C06  35985454.888          19.000      187746.179       -1811.787
C08  35875481.421          36.000       72900.666       -1260.032
C09  36860761.326           9.000      169489.982       -1621.573
R19  21221802.055           9.000           0.000       -1230.077
C13  36159370.489          31.000       37086.519       -1124.379
C16  36217475.963          25.000      201090.880       -1940.018
C23  25114835.561          23.000      364885.629       -3531.328
C38  35950571.637          27.000           0.000       -1610.159
C29  24363330.517          21.000      233309.366       -2264.316
E04  26254255.257          13.000       99233.435        -959.733
E12  24449246.839          21.000       59314.462       -1153.822
E19  24887953.528          36.000       84420.337       -2556.733
G15  22380343.411          16.000      338554.325       -3933.692
> 2023 07 25 09 21 10.000001   0 34
G05  24270072.578          13.000      144751.605       -4136.840
C39  36047505.931          21.000           0.000       -2124.128
G10  24140175.204          17.000      -78534.552         753.012
C20  23157793.393          36.000           0.000       -1017.667
G12  24316877.376          13.000       -4288.855         338.089
G18  20562917.888          17.000      202611.844       -2255.444
G23  21526566.568          37.000       -1329.078          36.614
G24  20320266.772          37.000       59498.795       -2979.606
J03  36010859.601          37.000       70901.317       -2148.925
C46  24518758.217          22.000           0.000        1171.863
C27  26635460.854          20.000           0.000       -4588.077
C32  23698569.222          18.000      226507.296       -2487.252
R14  21465575.894          37.000           0.000        1425.956
C37  22849687.990          31.000           0.000        -931.334
R18  20600341.883          24.000           0.000       -4212.720
R13  21165685.404          14.000           0.000       -2076.441
G25  24847585.275          18.000      -30113.014         679.433
C30  24245230.276          16.000           0.000       -4268.291
R17  22911958.484          15.000           0.000       -6136.915
R03  21415867.307          30.000           0.000       -2332.104
R04  22064425.119          23.000           0.000       -1065.857
E33  24246968.773          14.000      354153.207       -3950.177
C06  35985800.249          19.000      189557.289       -1811.797
C08  35875724.852          36.000       74159.533       -1258.431
C09  36861069.213          10.000      171110.802       -1621.036
C13  36159583.042          30.000       38209.977       -1123.046
C16  36217850.104          26.000      203031.157       -1939.907
C23  25115513.092          22.000      368417.678       -3533.459
C38  35950880.723          26.000           0.000       -1610.523
C29  24363767.015          21.000      235576.297       -2268.131
E04  26254444.426          13.000      100189.717        -955.867
E12  24449467.186          18.000       60468.793       -1155.017
E19  24888440.391          36.000       86977.488       -2558.706
G15  22381104.284          19.000      342489.291       -3935.634
> 2023 07 25 09 21 11.000001   0 34
G05  24270858.634          12.000      148887.270       -4135.487
C39  36047913.049          20.000           0.000       -2121.823
G10  24140037.600          18.000      -79287.690         753.040
C20  23157989.458          36.000           0.000       -1012.359
G12  24316811.122          11.000       -4627.475         339.434
G18  20563350.189          18.000      204867.714       -2256.522
G23  21526561.472          38.000       -1365.663          39.883
G24  20320830.082          37.000       62479.055       -2977.535
J03  36011271.216          37.000       73049.534       -2146.043
C46  24518527.976          22.000           0.000        1173.517
C27  26636341.644          21.000           0.000       -4584.575
C32  23699040.196          25.000      228995.966       -2489.815
R14  21465310.878          38.000           0.000        1425.792
C37  22849871.463          33.000           0.000        -927.735
R18  20601135.134          22.000           0.000       -4214.283
R13  21166072.436          15.000           0.000       -2065.483
G25  24847457.563          18.000      -30792.148         679.545
C30  24246041.515          19.000           0.000       -4267.365
R17  22913112.985          15.000           0.000       -6137.821
R03  21416302.006          29.000           0.000       -2331.767
R04  22064618.486          24.000           0.000       -1066.940
E33  24247719.453          16.000      358103.141       -3949.300
C06  35986147.109          18.000      191368.536       -1811.498
C08  35875965.886          35.000       75418.132       -1255.185
C09  36861376.800          12.000      172733.716       -1623.478
C13  36159794.695          31.000       39333.220       -1120.104
C16  36218223.046          26.000      204971.887       -1941.440
C23  25116189.724          19.000      371950.266       -3532.701
C38  35951191.908          28.000           0.000       -1609.606
C29  24364205.611          21.000      237844.564       -2268.489
E04  26254629.398          12.000      101149.220        -963.793
E12  24449689.332          19.000       61625.099       -1155.675
E19  24888926.954          35.000       89534.189       -2554.058
G15  22381865.457          23.000      346425.878       -3937.040
> 2023 07 25 09 21 12.000001   0 35
G05  24271645.889          12.000      153022.775       -4135.010
C39  36048320.467          21.000           0.000       -2120.387
G10  24139898.196          18.000      -80041.028         753.567
C20  23158182.824          37.000           0.000       -1013.354
G12  24316743.369           9.000       -4963.643         332.686
G18  20563778.892          18.000      207123.667       -2255.436
G23  21526551.279          38.000       -1404.795          39.366
G24  20321396.390          35.000       65457.189       -2977.389
J03  36011677.434          38.000       75195.117       -2145.707
C46  24518298.035          22.000           0.000        1173.407
C27  26637223.034          20.000           0.000       -4586.376
G32  24606747.004          18.000           0.000        -211.949
C32  23699512.669          26.000      231484.509       -2488.226
R14  21465034.169          38.000           0.000        1429.037
C37  22850049.240          32.000           0.000        -930.724
R18  20601923.288          24.000           0.000       -4212.001
R13  21166464.864          14.000           0.000       -2045.336
G25  24847332.550          17.000      -31472.326         681.886
C30  24246857.250          19.000           0.000       -4269.016
R17  22914255.194          14.000           0.000       -6139.041
R03  21416729.809          30.000           0.000       -2329.686
R04  22064813.950          21.000           0.000       -1066.184
E33  24248469.834          17.000      362051.821       -3948.000
C06  35986494.568          18.000      193180.918       -1812.298
C08  35876207.219          36.000       76674.130       -1256.049
C09  36861685.886          13.000      174359.189       -1626.990
C13  36160012.045          31.000       40453.850       -1119.533
C16  36218595.388          27.000      206911.491       -1937.821
C23  25116868.154          21.000      375480.568       -3529.308
C38  35951500.694          27.000           0.000       -1609.830
C29  24364642.409          20.000      240112.265       -2267.205
E04  26254816.169          13.000      102113.791        -965.429
E12  24449907.281          21.000       62778.545       -1151.842
E19  24889412.618          36.000       92088.300       -2554.781
G15  22382624.831          27.000      350362.232       -3935.408
> 2023 07 25 09 21 13.000001   0 36
G05  24272435.543          12.000      157157.452       -4134.203
C39  36048727.585          21.000           0.000       -2119.433
G10  24139760.591          18.000      -80794.866         754.207
C20  23158377.689          36.000           0.000       -1014.363
G12  24316679.513           9.000       -5291.560         324.246
G18  20564214.790          19.000      209379.308       -2255.826
G23  21526546.182          38.000       -1443.447          39.654
G24  20321966.895          35.000       68436.287       -2978.972
J03  36012086.052          37.000       77341.083       -2145.798
C46  24518071.392          21.000           0.000        1174.841
C27  26638105.923          20.000           0.000       -4586.958
G32  24606797.668          17.000           0.807        -208.707
C32  23699984.542          25.000      233972.940       -2489.302
R14  21464763.756          39.000           0.000        1426.867
C37  22850225.818          31.000           0.000        -929.729
R18  20602710.244          24.000           0.000       -4211.591
R13  21166855.194          16.000           0.000       -2035.795
G25  24847205.737          18.000      -32155.510         683.186
C30  24247672.086          19.000           0.000       -4260.321
R17  22915400.701          13.000           0.000       -6137.562
R03  21417159.112          30.000           0.000       -2328.340
R04  22065009.415          22.000           0.000       -1063.710
E33  24249219.615          17.000      365998.938       -3946.269
C06  35986841.428          17.000      194987.841       -1805.564
C08  35876447.352          35.000       77930.600       -1255.949
C09  36861994.372          16.000      175988.187       -1630.571
R19  21222021.203          18.000           0.000        -996.999
C13  36160231.193          31.000       41574.812       -1122.304
C16  36218965.932          27.000      208847.538       -1935.753
C23  25117554.079          20.000      379010.427       -3529.981
C38  35951809.180          26.000           0.000       -1609.125
C29  24365075.609          20.000      242378.204       -2264.876
E04  26255001.441          15.000      103079.870        -966.960
E12  24450124.031          21.000       63928.526       -1149.329
E19  24889898.582          36.000       94642.685       -2556.193
G15  22383380.008          30.000      354297.080       -3934.303
> 2023 07 25 09 21 14.000001   0 36
G05  24273222.798          11.000      161291.117       -4133.303
C39  36049135.603          21.000           0.000       -2122.390
G10  24139620.289          18.000      -81549.237         754.370
C20  23158573.153          36.000           0.000       -1018.021
G12  24316615.357           9.000       -5618.703         328.150
G18  20564646.791          20.000      211635.725       -2257.287
G23  21526543.784          38.000       -1479.497          33.932
G24  20322536.501          37.000       71418.573       -2983.768
J03  36012496.168          38.000       79489.630       -2150.469
C46  24517842.351          21.000           0.000        1176.546
C27  26638987.613          20.000           0.000       -4588.558
G32  24606842.338          15.000         208.569        -205.758
C32  23700456.116          24.000      236462.274       -2489.751
R14  21464490.945          39.000           0.000        1423.465
C37  22850396.100          33.000           0.000        -934.470
R18  20603501.995          23.000           0.000       -4213.666
R13  21167238.629          16.000           0.000       -2048.235
G25  24847071.430          18.000      -32837.021         679.807
C30  24248485.123          19.000           0.000       -4245.527
R17  22916544.709          12.000           0.000       -6137.349
R03  21417586.616          28.000           0.000       -2330.188
R04  22065207.578          22.000           0.000       -1068.262
E33  24249969.396          17.000      369945.782       -3948.023
C06  35987184.990          17.000      196792.123       -1803.751
C08  35876688.685          35.000       79189.619       -1260.862
C09  36862302.859          18.000      177619.806       -1632.215
R19  21222235.555          17.000           0.000        -964.472
C13  36160443.146          30.000       42698.441       -1123.948
C16  36219337.974          27.000      210782.951       -1935.284
C23  25118234.008          19.000      382539.217       -3528.862
C38  35952123.663          27.000           0.000       -1610.597
C29  24365502.813          24.000      244642.581       -2264.924
E04  26255184.314          16.000      104048.115        -969.583
E12  24450341.381          20.000       65078.860       -1154.328
E19  24890385.445          36.000       97199.671       -2558.774
G15  22384133.687          29.000      358231.823       -3935.612
> 2023 07 25 09 21 15.000001   0 35
G05  24274008.254          11.000      165424.304       -4133.578
C39  36049544.520          21.000           0.000       -2125.638
G10  24139478.487          17.000      -82303.481         754.223
C20  23158768.318          36.000           0.000       -1018.629
G18  20565088.985          21.000      213894.798       -2260.454
G23  21526533.891          38.000       -1514.081          33.971
G24  20323106.106          37.000       74402.792       -2985.602
J03  36012904.785          38.000       81639.608       -2150.318
C46  24517618.106          20.000           0.000        1176.035
C27  26639871.101          19.000           0.000       -4590.291
G32  24606882.810          13.000         414.367        -205.556
C32  23700924.691          21.000      238953.519       -2492.789
R14  21464223.830          39.000           0.000        1422.263
C37  22850570.279          33.000           0.000        -934.862
R18  20604288.051          17.000           0.000       -4212.978
R13  21167619.965          16.000           0.000       -2034.977
G25  24846943.719          18.000      -33516.620         678.540
C30  24249298.460          19.000           0.000       -4254.564
R17  22917689.017           9.000           0.000       -6135.738
R03  21418016.219          27.000           0.000       -2332.755
R04  22065411.736          21.000           0.000       -1067.207
E33  24250721.575          17.000      373895.294       -3950.994
C06  35987530.951          16.000      198595.678       -1799.913
C08  35876928.519          35.000       80450.042       -1260.723
C09  36862614.343          19.000      179255.915       -1637.299
R19  21222384.252          16.000           0.000        -969.621
C13  36160653.301          30.000       43823.330       -1124.742
C16  36219711.815          27.000      212720.690       -1939.896
C23  25118911.839          21.000      386068.199       -3528.915
C38  35952438.745          26.000           0.000       -1613.745
C29  24365931.217          21.000      246907.888       -2266.120
E04  26255367.188          16.000      105019.062        -974.612
E12  24450559.630          19.000       66234.914       -1155.945
E19  24890872.607          36.000       99758.013       -2560.248
G15  22384888.564          28.000      362167.954       -3937.089
> 2023 07 25 09 21 16.000001   0 36
G05  24274792.211          13.000      169558.269       -4134.642
C39  36049954.036          21.000           0.000       -2126.201
G10  24139339.083          16.000      -83057.245         753.940
C20  23158963.783          36.000           0.000       -1017.617
G18  20565531.779          20.000      216156.130       -2263.811
G23  21526530.593          38.000       -1547.781          32.649
G24  20323673.913          38.000       77388.463       -2986.300
J03  36013316.100          37.000       83790.437       -2151.310
C46  24517397.159          20.000           0.000        1175.003
C27  26640755.789          20.000           0.000       -4590.127
G32  24606921.183          12.000         620.543        -207.859
C32  23701397.464          22.000      241446.644       -2494.572
R14  21463957.914          38.000           0.000        1421.389
C37  22850748.356          33.000           0.000        -937.223
R18  20605073.208          16.000           0.000       -4216.010
R13  21168001.600          13.000           0.000       -2037.367
G25  24846814.808          18.000      -34193.923         675.271
C30  24250114.795          19.000           0.000       -4269.143
R17  22918830.327           9.000           0.000       -6134.573
R03  21418449.119          25.000           0.000       -2333.813
R04  22065606.002          19.000           0.000       -1070.134
E33  24251472.555          18.000      377847.488       -3953.327
C06  35987875.412          16.000      200395.876       -1804.373
C08  35877168.953          34.000       81711.335       -1261.771
C09  36862925.827          24.000      180894.375       -1639.274
R19  21222572.222          17.000           0.000        -993.624
C13  36160874.547          30.000       44949.184       -1127.702
C16  36220084.158          28.000      214660.592       -1941.110
C23  25119589.670          16.000      389597.686       -3532.464
C38  35952751.728          28.000           0.000       -1616.186
C29  24366369.513          18.000      249176.789       -2269.853
E04  26255554.558          16.000      105993.480        -975.091
E12  24450778.478          18.000       67389.451       -1153.849
E19  24891359.470          36.000      102317.128       -2559.217
G15  22385644.940          26.000      366105.603       -3938.056
J02  37441103.463          22.000      146746.845       -1814.083
> 2023 07 25 09 21 17.000001   0 35
G05  24275578.267          13.000      173693.424       -4135.886
C39  36050364.152          21.000           0.000       -2128.451
G10  24139203.577          13.000      -83810.998         753.945
C20  23159158.348          36.000           0.000       -1019.010
G18  20565972.174          20.000      218421.388       -2270.677
G23  21526521.299          38.000       -1581.043          33.992
G24  20324241.420          38.000       80375.054       -2986.843
J03  36013725.317          38.000       85941.646       -2151.154
C46  24517176.812          24.000           0.000        1172.318
C27  26641640.776          21.000           0.000       -4590.512
G32  24606959.257          10.000         828.179        -204.493
C32  23701874.434          23.000      243941.321       -2494.527
R14  21463691.998          38.000           0.000        1420.899
C37  22850932.728          33.000           0.000        -936.602
R18  20605853.867          16.000           0.000       -4218.459
R13  21168383.236          11.000           0.000       -2039.903
G25  24846682.899          19.000      -34868.006         673.472
C30  24250930.830          19.000           0.000       -4269.193
R17  22919971.637          11.000           0.000       -6133.997
R03  21418874.825          19.000           0.000       -2334.509
R04  22065803.865          17.000           0.000       -1069.841
E33  24252224.434          19.000      381801.885       -3955.039
C06  35988222.272          16.000      202200.433       -1807.217
C08  35877413.583          34.000       82973.017       -1262.376
C09  36863239.710          22.000      182534.610       -1640.771
R19  21222761.091          18.000           0.000        -999.170
C13  36161093.396          29.000       46075.316       -1127.482
C16  36220456.800          28.000      216602.853       -1943.454
C23  25120268.100          18.000      393130.227       -3533.631
C38  35953065.611          27.000           0.000       -1615.559
C29  24366814.106          19.000      251447.788       -2270.242
E04  26255738.630          15.000      106966.580        -972.626
E12  24450997.327          15.000       68538.072       -1146.101
E19  24891846.633          36.000      104876.514       -2558.931
G15  22386392.923          22.000      370044.053       -3938.958
> 2023 07 25 09 21 18.000001   0 36
G05  24276365.222          14.000      177829.905       -4137.082
C39  36050773.669          21.000           0.000       -2124.442
G10  24139060.576           9.000      -84565.119         754.664
C20  23159354.113          36.000           0.000       -1019.344
G18  20566414.967          18.000      220688.636       -2264.792
G23  21526515.004          39.000       -1614.258          32.806
G24  20324809.227          38.000       83362.239       -2986.689
J03  36014134.234          37.000       88092.968       -2151.281
C46  24516957.064          23.000           0.000        1169.819
C27  26642527.562          21.000           0.000       -4592.681
G32  24606997.030          11.000        1031.618        -204.862
C32  23702356.800          24.000      246434.859       -2492.701
R14  21463421.585          38.000           0.000        1420.963
R02  23697366.458          19.000           0.000       -3366.684
C37  22851123.396          33.000           0.000        -937.217
R18  20606640.223          17.000           0.000       -4220.891
R13  21168769.969          12.000           0.000       -2041.488
G25  24846558.785          18.000      -35539.720         670.984
C30  24251748.364          19.000           0.000       -4264.503
R17  22921117.444          13.000           0.000       -6133.720
R03  21419302.928          20.000           0.000       -2334.604
R04  22065997.231          18.000           0.000       -1070.806
E33  24252974.515          20.000      385757.367       -3955.772
C06  35988569.432          17.000      204008.848       -1809.830
C08  35877654.017          34.000       84234.749       -1261.170
C09  36863552.694          22.000      184174.463       -1640.649
R19  21222942.765          18.000           0.000        -998.379
C13  36161306.548          30.000       47201.552       -1124.914
C16  36220831.540          28.000      218547.316       -1944.613
C23  25120948.329          19.000      396666.537       -3538.143
C38  35953377.695          29.000           0.000       -1615.347
C29  24367257.798          24.000      253718.501       -2271.482
E04  26255923.303          13.000      107939.633        -973.106
E12  24451214.377          10.000       69684.987       -1148.895
E19  24892333.496          36.000      107436.004       -2558.943
G15  22387140.305          21.000      373982.971       -3938.686
> 2023 07 25 09 21 19.000001   0 36
G05  24277150.678          14.000      181968.847       -4139.885
C39  36051181.686          21.000           0.000       -2122.799
G10  24138920.573           9.000      -85319.528         749.880
C20  23159550.777          36.000           0.000       -1018.697
G18  20566846.968          16.000      222954.689       -2266.393
G23  21526509.907          39.000       -1647.500          33.060
G24  20325375.835          37.000       86349.843       -2986.541
J03  36014545.549          37.000       90244.104       -2151.261
C46  24516737.916          24.000           0.000        1168.803
C27  26643409.851          22.000           0.000       -4590.767
G32  24607035.404           9.000        1237.231        -208.908
C32  23702841.264          25.000      248926.797       -2491.721
R14  21463155.370          39.000           0.000        1420.510
R02  23697963.045          14.000           0.000       -3229.692
C37  22851309.268          33.000           0.000        -938.439
R18  20607439.170          16.000           0.000       -4221.842
R13  21169161.198          14.000           0.000       -2047.326
G25  24846432.573          18.000      -36210.922         672.782
C30  24252563.200          19.000           0.000       -4269.609
R17  22922265.349          12.000           0.000       -6133.765
R03  21419732.831          19.000           0.000       -2334.611
R04  22066198.092          20.000           0.000       -1067.991
E33  24253725.495          21.000      389713.048       -3955.636
C06  35988918.690          18.000      205819.010       -1812.506
C08  35877891.453          34.000       85496.386       -1261.659
C09  36863866.276          22.000      185814.524       -1640.050
R19  21223127.438          17.000           0.000       -1004.417
C13  36161522.099          30.000       48327.505       -1127.478
C16  36221207.480          28.000      220491.121       -1943.403
C23  25121624.361          19.000      400204.344       -3537.761
C38  35953690.078          28.000           0.000       -1613.513
C29  24367699.393          25.000      255990.447       -2272.133
E04  26256109.174          11.000      108914.048        -974.002
E12  24451431.126          10.000       70832.834       -1148.255
E19  24892820.359          36.000      109995.219       -2558.662
G15  22387891.885          21.000      377921.160       -3936.945
> 2023 07 25 09 21 20.000001   0 37
G05  24277933.736          13.000      186107.399       -4136.017
C39  36051590.303          21.000           0.000       -2122.252
G10  24138775.174           9.000      -86068.877         744.818
C20  23159747.440          36.000           0.000       -1018.537
G12  24316138.388          16.000           0.000         354.487
G18  20567279.269          14.000      225221.509       -2266.869
G23  21526503.612          38.000       -1680.865          33.231
G24  20325942.143          37.000       89337.947       -2988.796
J03  36014952.367          35.000       92395.127       -2150.506
C46  24516520.266          26.000           0.000        1169.233
C27  26644290.042          22.000           0.000       -4589.751
G32  24607076.475           9.000        1447.636        -212.249
C32  23703326.029          23.000      251419.358       -2492.939
R14  21462884.957          39.000           0.000        1420.293
R02  23698577.919           9.000           0.000       -3230.929
C37  22851493.041          32.000           0.000        -939.389
R18  20608233.020          16.000           0.000       -4222.189
R13  21169548.829          16.000           0.000       -2048.810
G25  24846300.964          17.000      -36884.843         674.990
C30  24253380.434          20.000           0.000       -4277.005
R17  22923416.252          13.000           0.000       -6134.984
R03  21420161.534          18.000           0.000       -2333.637
R04  22066392.657          20.000           0.000       -1068.160
E33  24254478.574          22.000      393668.638       -3955.301
C06  35989266.149          19.000      207631.570       -1814.534
C08  35878137.882          33.000       86757.949       -1262.422
C09  36864180.459          25.000      187454.589       -1639.635
R19  21223315.707          17.000           0.000        -998.337
C13  36161733.753          30.000       49453.384       -1123.476
C16  36221581.321          29.000      222434.346       -1942.879
C23  25122302.792          20.000      403742.047       -3538.757
C38  35954000.064          29.000           0.000       -1612.744
C29  24368137.390          24.000      258261.619       -2270.879
E04  26256294.146          10.000      109887.743        -974.360
E12  24451647.876          11.000       71985.779       -1156.630
E19  24893307.522          35.000      112554.290       -2560.279
G15  22388644.964          14.000      381859.532       -3939.080
> 2023 07 25 09 21 21.000001   0 37
G05  24278722.790          12.000      190242.113       -4131.584
C39  36051998.321          21.000           0.000       -2125.603
G10  24138635.171           9.000      -86812.788         739.438
C20  23159941.106          36.000           0.000       -1017.761
G12  24316078.429          16.000           0.047         351.543
G18  20567710.970          14.000      227487.844       -2266.376
G23  21526497.316          39.000       -1714.225          32.995
G24  20326512.648          37.000       92326.495       -2989.830
J03  36015361.884          37.000       94546.100       -2150.735
C46  24516299.319          25.000           0.000        1169.395
C27  26645173.530          22.000           0.000       -4592.813
G32  24607113.650          10.000        1659.924        -210.396
C32  23703806.296          23.000      253912.691       -2492.594
R14  21462618.441          39.000           0.000        1420.025
R02  23699201.787           9.000           0.000       -3246.814
C37  22851672.916          32.000           0.000        -939.490
R18  20609013.980          17.000           0.000       -4222.401
R13  21169931.365          17.000           0.000       -2050.354
G25  24846169.655          16.000      -37559.705         673.781
C30  24254199.467          20.000           0.000       -4274.407
R17  22924565.357          14.000           0.000       -6134.721
R03  21420583.941          18.000           0.000       -2333.991
R04  22066598.914          21.000           0.000       -1068.853
E33  24255231.653          22.000      397624.072       -3955.605
C06  35989615.408          19.000      209445.994       -1814.697
C08  35878382.513          34.000       88019.436       -1261.059
C09  36864492.843          23.000      189093.185       -1636.798
R19  21223500.979          17.000           0.000        -992.066
C13  36161949.603          28.000       50579.261       -1125.843
C16  36221955.462          28.000      224377.600       -1943.354
C23  25122981.222          21.000      407282.148       -3540.463
C38  35954308.850          28.000           0.000       -1612.848
C29  24368574.187          20.000      260533.597       -2273.156
E04  26256480.317           9.000      110859.461        -970.025
E12  24451867.324          14.000       73143.554       -1159.162
E19  24893794.385          35.000      115113.190       -2559.821
G15  22389382.153          13.000      385799.299       -3939.959
